{"pagination":{"offset":0,"limit":1000,"count":1000,"total":9368},"data":[{"gmt":"-10","iata_code":"AAA","country_iso2":"PF","geoname_id":null,"latitude":"-17.05","longitude":"-145.41667","city_name":"Anaa","timezone":"Pacific\/Tahiti"},{"gmt":"10","iata_code":"AAB","country_iso2":"AU","geoname_id":null,"latitude":"-26.7","longitude":"141.04167","city_name":"Arrabury","timezone":"Australia\/Brisbane"},{"gmt":"2","iata_code":"AAC","country_iso2":"EG","geoname_id":"361546","latitude":"31.133333","longitude":"33.75","city_name":"El Arish","timezone":"Africa\/Cairo"},{"gmt":"1","iata_code":"AAE","country_iso2":"DZ","geoname_id":"2506999","latitude":"36.821392","longitude":"7.811857","city_name":"Annaba","timezone":"Africa\/Algiers"},{"gmt":"-6","iata_code":"AAF","country_iso2":"US","geoname_id":"4167695","latitude":"29.733334","longitude":"-84.98333","city_name":"Apalachicola","timezone":"America\/Chicago"},{"gmt":"-3","iata_code":"AAG","country_iso2":"BR","geoname_id":"3471795","latitude":"-24.103611","longitude":"-49.79","city_name":"Arapoti","timezone":"America\/Sao_Paulo"},{"gmt":"1","iata_code":"AAH","country_iso2":"DE","geoname_id":"3247449","latitude":"50.775438","longitude":"6.08151","city_name":"Aachen","timezone":"Europe\/Berlin"},{"gmt":"-3","iata_code":"AAI","country_iso2":"BR","geoname_id":null,"latitude":"-12.916667","longitude":"-46.933334","city_name":"Arraias","timezone":"America\/Araguaina"},{"gmt":"-3","iata_code":"AAJ","country_iso2":"SR","geoname_id":null,"latitude":"3.9","longitude":"-55.36667","city_name":"Awaradam","timezone":"America\/Paramaribo"},{"gmt":"12","iata_code":"AAK","country_iso2":"KI","geoname_id":null,"latitude":"0.166667","longitude":"173.58333","city_name":"Aranuka","timezone":"Pacific\/Tarawa"},{"gmt":"1","iata_code":"AAL","country_iso2":"DK","geoname_id":"2624886","latitude":"57.028811","longitude":"9.917771","city_name":"Aalborg","timezone":"Europe\/Copenhagen"},{"gmt":"2","iata_code":"AAM","country_iso2":"ZA","geoname_id":"954955","latitude":"-24.8","longitude":"31.533333","city_name":"Mala Mala","timezone":"Africa\/Johannesburg"},{"gmt":"4","iata_code":"AAN","country_iso2":"AE","geoname_id":"292913","latitude":"24.2075","longitude":"55.744722","city_name":"Al Ain","timezone":"Asia\/Dubai"},{"gmt":"-4","iata_code":"AAO","country_iso2":"VE","geoname_id":"3486270","latitude":"9.431944","longitude":"-64.46389","city_name":"Anaco","timezone":"America\/Caracas"},{"gmt":"3","iata_code":"AAQ","country_iso2":"RU","geoname_id":"582182","latitude":"44.9","longitude":"37.316666","city_name":"Anapa","timezone":"Europe\/Moscow"},{"gmt":"1","iata_code":"AAR","country_iso2":"DK","geoname_id":"2611664","latitude":"56.162939","longitude":"10.203921","city_name":"Aarhus","timezone":"Europe\/Copenhagen"},{"gmt":"9","iata_code":"AAS","country_iso2":"ID","geoname_id":null,"latitude":"-3.916667","longitude":"139.25","city_name":"Apalapsili","timezone":"Asia\/Jayapura"},{"gmt":"8","iata_code":"AAT","country_iso2":"CN","geoname_id":"1529651","latitude":"47.750362","longitude":"88.08444","city_name":"Altay","timezone":"Asia\/Shanghai"},{"gmt":"13","iata_code":"AAU","country_iso2":"WS","geoname_id":"4035092","latitude":"-13.458333","longitude":"-172.6","city_name":"Asau","timezone":"Pacific\/Apia"},{"gmt":"8","iata_code":"AAV","country_iso2":"PH","geoname_id":null,"latitude":"6.333333","longitude":"124.76667","city_name":"Surallah","timezone":"Asia\/Manila"},{"gmt":"5","iata_code":"AAW","country_iso2":"PK","geoname_id":null,"latitude":"34.2","longitude":"73.25","city_name":"Abbottabad","timezone":"Asia\/Karachi"},{"gmt":"-3","iata_code":"AAX","country_iso2":"BR","geoname_id":"3471691","latitude":"-19.568056","longitude":"-46.92917","city_name":"Araxa","timezone":"America\/Sao_Paulo"},{"gmt":"3","iata_code":"AAY","country_iso2":"YE","geoname_id":null,"latitude":"16.19596","longitude":"52.173256","city_name":"Al Ghaydah","timezone":"Asia\/Aden"},{"gmt":"-6","iata_code":"AAZ","country_iso2":"GT","geoname_id":"3599699","latitude":"14.87","longitude":"-91.5","city_name":"Quetzaltenango","timezone":"America\/Guatemala"},{"gmt":"7","iata_code":"ABA","country_iso2":"RU","geoname_id":"1512236","latitude":"53.716667","longitude":"91.5","city_name":"Abakan","timezone":"Asia\/Krasnoyarsk"},{"gmt":null,"iata_code":"ABB","country_iso2":"NG","geoname_id":"2640729","latitude":"51.666668","longitude":"-1.283333","city_name":"Asaba","timezone":"Europe\/London"},{"gmt":"1","iata_code":"ABC","country_iso2":"ES","geoname_id":"2522258","latitude":"38.997652","longitude":"-1.86007","city_name":"Albacete","timezone":"Europe\/Madrid"},{"gmt":"3.30","iata_code":"ABD","country_iso2":"IR","geoname_id":null,"latitude":"30.363905","longitude":"48.226597","city_name":"Abadan","timezone":"Asia\/Tehran"},{"gmt":"-5","iata_code":"ABE","country_iso2":"US","geoname_id":"5178127","latitude":"40.651573","longitude":"-75.434364","city_name":"Allentown","timezone":"America\/New_York"},{"gmt":"12","iata_code":"ABF","country_iso2":"KI","geoname_id":null,"latitude":"1.670833","longitude":"173.30417","city_name":"Abaiang","timezone":"Pacific\/Tarawa"},{"gmt":"10","iata_code":"ABG","country_iso2":"AU","geoname_id":null,"latitude":"-17.666668","longitude":"143.2","city_name":"Abingdon","timezone":"Australia\/Brisbane"},{"gmt":"10","iata_code":"ABH","country_iso2":"AU","geoname_id":null,"latitude":"-23.65","longitude":"146.63333","city_name":"Alpha","timezone":"Australia\/Brisbane"},{"gmt":"-6","iata_code":"ABI","country_iso2":"US","geoname_id":"4669635","latitude":"32.448736","longitude":"-99.733144","city_name":"Abilene","timezone":"America\/Chicago"},{"gmt":null,"iata_code":"ABJ","country_iso2":"CI","geoname_id":"2293538","latitude":"5.254879","longitude":"-3.933015","city_name":"Abidjan","timezone":"Africa\/Abidjan"},{"gmt":"3","iata_code":"ABK","country_iso2":"ET","geoname_id":null,"latitude":"6.733889","longitude":"44.26611","city_name":"Kabri Dar","timezone":"Africa\/Addis_Ababa"},{"gmt":"-9","iata_code":"ABL","country_iso2":"US","geoname_id":null,"latitude":"67.0875","longitude":"-157.84584","city_name":"Ambler","timezone":"America\/Anchorage"},{"gmt":"10","iata_code":"ABM","country_iso2":"AU","geoname_id":"2177023","latitude":"-10.942619","longitude":"142.45033","city_name":"Bamaga","timezone":"Australia\/Brisbane"},{"gmt":"-3","iata_code":"ABN","country_iso2":"SR","geoname_id":"3384792","latitude":"5.5","longitude":"-54.083332","city_name":"Albina","timezone":"America\/Paramaribo"},{"gmt":null,"iata_code":"ABO","country_iso2":"CI","geoname_id":null,"latitude":"5.433333","longitude":"-3.216667","city_name":"Aboisso","timezone":"Africa\/Abidjan"},{"gmt":"10","iata_code":"ABP","country_iso2":"PG","geoname_id":null,"latitude":"-6.066667","longitude":"141.1","city_name":"Atkamba","timezone":"Pacific\/Port_Moresby"},{"gmt":"-7","iata_code":"ABQ","country_iso2":"US","geoname_id":"5454711","latitude":"35.049625","longitude":"-106.617195","city_name":"Albuquerque","timezone":"America\/Denver"},{"gmt":"-6","iata_code":"ABR","country_iso2":"US","geoname_id":"5225857","latitude":"45.4525","longitude":"-98.42611","city_name":"Aberdeen","timezone":"America\/Chicago"},{"gmt":"2","iata_code":"ABS","country_iso2":"EG","geoname_id":"362041","latitude":"22.367567","longitude":"31.609774","city_name":"Abu Simbel","timezone":"Africa\/Cairo"},{"gmt":"3","iata_code":"ABT","country_iso2":"SA","geoname_id":null,"latitude":"20.29401","longitude":"41.64002","city_name":"Al-Baha","timezone":"Asia\/Riyadh"},{"gmt":"8","iata_code":"ABU","country_iso2":"ID","geoname_id":null,"latitude":"-9.133333","longitude":"124.88333","city_name":"Atambua","timezone":"Asia\/Makassar"},{"gmt":"1","iata_code":"ABV","country_iso2":"NG","geoname_id":null,"latitude":"9.004614","longitude":"7.270447","city_name":"Abuja","timezone":"Africa\/Lagos"},{"gmt":"10","iata_code":"ABW","country_iso2":"PG","geoname_id":null,"latitude":"-10.183333","longitude":"148.7","city_name":"Abau","timezone":"Pacific\/Port_Moresby"},{"gmt":"10","iata_code":"ABX","country_iso2":"AU","geoname_id":"2178174","latitude":"-36.069626","longitude":"146.95453","city_name":"Albury","timezone":"Australia\/Sydney"},{"gmt":"-5","iata_code":"ABY","country_iso2":"US","geoname_id":"4179320","latitude":"31.578507","longitude":"-84.155741","city_name":"Albany","timezone":"America\/New_York"},{"gmt":null,"iata_code":"ABZ","country_iso2":"GB","geoname_id":"2657832","latitude":"57.147492","longitude":"-2.095397","city_name":"Aberdeen","timezone":"Europe\/London"},{"gmt":"-6","iata_code":"ACA","country_iso2":"MX","geoname_id":"3533462","latitude":"16.762403","longitude":"-99.75459","city_name":"Acapulco","timezone":"America\/Mexico_City"},{"gmt":"-5","iata_code":"ACB","country_iso2":"US","geoname_id":"4985583","latitude":"44.983334","longitude":"-85.21667","city_name":"Bellaire","timezone":"America\/Detroit"},{"gmt":null,"iata_code":"ACC","country_iso2":"GH","geoname_id":"2306104","latitude":"5.60737","longitude":"-0.171769","city_name":"Accra","timezone":"Africa\/Accra"},{"gmt":"-5","iata_code":"ACD","country_iso2":"CO","geoname_id":"3665580","latitude":"8.516667","longitude":"-77.3","city_name":"Acandi","timezone":"America\/Bogota"},{"gmt":null,"iata_code":"ACE","country_iso2":"ES","geoname_id":"6355013","latitude":"28.950668","longitude":"-13.609059","city_name":"Arrecife","timezone":"Atlantic\/Canary"},{"gmt":"1","iata_code":"ACH","country_iso2":"CH","geoname_id":"2661775","latitude":"47.483334","longitude":"9.566667","city_name":"Altenrhein","timezone":"Europe\/Zurich"},{"gmt":null,"iata_code":"ACI","country_iso2":"GG","geoname_id":"6692041","latitude":"49.709347","longitude":"-2.215369","city_name":"Alderney","timezone":"Europe\/London"},{"gmt":"5.30","iata_code":"ACJ","country_iso2":"LK","geoname_id":"1251081","latitude":"8.35","longitude":"80.38333","city_name":"Anuradhapura","timezone":"Asia\/Colombo"},{"gmt":"-5","iata_code":"ACK","country_iso2":"US","geoname_id":"4944903","latitude":"41.256668","longitude":"-70.05972","city_name":"Nantucket","timezone":"America\/New_York"},{"gmt":"-5","iata_code":"ACL","country_iso2":"CO","geoname_id":null,"latitude":"4.75","longitude":"-73","city_name":"Aguaclara","timezone":"America\/Bogota"},{"gmt":"-5","iata_code":"ACM","country_iso2":"CO","geoname_id":null,"latitude":"-2","longitude":"-71.833336","city_name":"Arica","timezone":"America\/Bogota"},{"gmt":"-6","iata_code":"ACN","country_iso2":"MX","geoname_id":"3992619","latitude":"29.3","longitude":"-100.916664","city_name":"Acuna","timezone":"America\/Matamoros"},{"gmt":"3.30","iata_code":"ACP","country_iso2":"IR","geoname_id":null,"latitude":"37.347244","longitude":"46.145115","city_name":"Sahand","timezone":"Asia\/Tehran"},{"gmt":"-5","iata_code":"ACR","country_iso2":"CO","geoname_id":null,"latitude":"-0.383333","longitude":"-72.3","city_name":"Araracuara","timezone":"America\/Bogota"},{"gmt":"7","iata_code":"ACS","country_iso2":"RU","geoname_id":null,"latitude":"56.266666","longitude":"90.566666","city_name":"Achinsk","timezone":"Asia\/Krasnoyarsk"},{"gmt":"-6","iata_code":"ACT","country_iso2":"US","geoname_id":"4739526","latitude":"31.549333","longitude":"-97.14667","city_name":"Waco","timezone":"America\/Chicago"},{"gmt":"-5","iata_code":"ACU","country_iso2":"PA","geoname_id":null,"latitude":"9.576389","longitude":"-79.72444","city_name":"Achutupo","timezone":"America\/Panama"},{"gmt":"-8","iata_code":"ACV","country_iso2":"US","geoname_id":"5558953","latitude":"40.970913","longitude":"-124.106926","city_name":"Arcata","timezone":"America\/Los_Angeles"},{"gmt":"8","iata_code":"ACX","country_iso2":"CN","geoname_id":null,"latitude":"25.085556","longitude":"104.95944","city_name":"Xingyi","timezone":"Asia\/Shanghai"},{"gmt":"3.30","iata_code":"ACZ","country_iso2":"IR","geoname_id":null,"latitude":"31.087694","longitude":"61.542244","city_name":"Zabol","timezone":"Asia\/Tehran"},{"gmt":"3","iata_code":"ADA","country_iso2":"TR","geoname_id":"325363","latitude":"37","longitude":"35.321333","city_name":"Adana","timezone":"Europe\/Istanbul"},{"gmt":"10","iata_code":"ADC","country_iso2":"PG","geoname_id":"2100827","latitude":"-7.133333","longitude":"145.73334","city_name":"Andakombe","timezone":"Pacific\/Port_Moresby"},{"gmt":"3","iata_code":"ADD","country_iso2":"ET","geoname_id":"344979","latitude":"8.983759","longitude":"38.7959","city_name":"Addis Ababa","timezone":"Africa\/Addis_Ababa"},{"gmt":"3","iata_code":"ADE","country_iso2":"YE","geoname_id":"415189","latitude":"12.826116","longitude":"45.037537","city_name":"Aden","timezone":"Asia\/Aden"},{"gmt":"3","iata_code":"ADF","country_iso2":"TR","geoname_id":"325330","latitude":"37.75","longitude":"38.266666","city_name":"Adiyaman","timezone":"Europe\/Istanbul"},{"gmt":"-5","iata_code":"ADG","country_iso2":"US","geoname_id":"4917712","latitude":"41.9","longitude":"-84.03333","city_name":"Adrian","timezone":"America\/Indiana\/Indianapolis"},{"gmt":"9","iata_code":"ADH","country_iso2":"RU","geoname_id":null,"latitude":"58.6","longitude":"125.4","city_name":"Aldan","timezone":"Asia\/Yakutsk"},{"gmt":"2","iata_code":"ADI","country_iso2":"NA","geoname_id":"3352844","latitude":"-22.4","longitude":"15","city_name":"Arandis","timezone":"Africa\/Windhoek"},{"gmt":"-10","iata_code":"ADK","country_iso2":"US","geoname_id":null,"latitude":"51.88278","longitude":"-176.64473","city_name":"Adak Island","timezone":"America\/Adak"},{"gmt":"9.30","iata_code":"ADL","country_iso2":"AU","geoname_id":"2078025","latitude":"-34.928621","longitude":"138.599959","city_name":"Adelaide","timezone":"Australia\/Adelaide"},{"gmt":"-6","iata_code":"ADM","country_iso2":"US","geoname_id":"4529469","latitude":"34.303055","longitude":"-97.01945","city_name":"Ardmore","timezone":"America\/Chicago"},{"gmt":"-5","iata_code":"ADN","country_iso2":"CO","geoname_id":"3674962","latitude":"5.666667","longitude":"-75.933334","city_name":"Andes","timezone":"America\/Bogota"},{"gmt":"9.30","iata_code":"ADO","country_iso2":"AU","geoname_id":null,"latitude":"-31.016666","longitude":"137.15","city_name":"Andamooka","timezone":"Australia\/Adelaide"},{"gmt":"5.30","iata_code":"ADP","country_iso2":"LK","geoname_id":"1251081","latitude":"7.336389","longitude":"81.625275","city_name":"Ampara","timezone":"Asia\/Colombo"},{"gmt":"-9","iata_code":"ADQ","country_iso2":"US","geoname_id":"5866583","latitude":"57.79","longitude":"-152.407222","city_name":"Kodiak","timezone":"America\/Anchorage"},{"gmt":"-5","iata_code":"ADR","country_iso2":"US","geoname_id":"4588718","latitude":"33.45","longitude":"-79.566666","city_name":"Andrews","timezone":"America\/New_York"},{"gmt":"-6","iata_code":"ADT","country_iso2":"US","geoname_id":"4529096","latitude":"34.8","longitude":"-96.666664","city_name":"Ada","timezone":"America\/Chicago"},{"gmt":"3.30","iata_code":"ADU","country_iso2":"IR","geoname_id":null,"latitude":"38.323826","longitude":"48.42125","city_name":"Ardabil","timezone":"Asia\/Tehran"},{"gmt":"-5","iata_code":"ADW","country_iso2":"US","geoname_id":null,"latitude":"38.816666","longitude":"-76.86667","city_name":"Camp Springs","timezone":"America\/New_York"},{"gmt":null,"iata_code":"ADX","country_iso2":"GB","geoname_id":"2644581","latitude":"56.36667","longitude":"-2.866667","city_name":"St Andrews","timezone":"Europe\/London"},{"gmt":"2","iata_code":"ADY","country_iso2":"ZA","geoname_id":"981827","latitude":"-22.666668","longitude":"29.05","city_name":"Alldays","timezone":"Africa\/Johannesburg"},{"gmt":"-5","iata_code":"ADZ","country_iso2":"CO","geoname_id":"3670218","latitude":"12.586047","longitude":"-81.70221","city_name":"San Andres Island","timezone":"America\/Bogota"},{"gmt":"12","iata_code":"AEA","country_iso2":"KI","geoname_id":null,"latitude":"0.483333","longitude":"173.85","city_name":"Abemama Atoll","timezone":"Pacific\/Tarawa"},{"gmt":"8","iata_code":"AEB","country_iso2":"CN","geoname_id":"1794330","latitude":"23.71947","longitude":"106.96777","city_name":"Baise","timezone":"Asia\/Shanghai"},{"gmt":"-9","iata_code":"AED","country_iso2":"US","geoname_id":"5879155","latitude":"58.033333","longitude":"-152.9","city_name":"Aleneva","timezone":"America\/Anchorage"},{"gmt":"3","iata_code":"AEE","country_iso2":"SS","geoname_id":null,"latitude":"10.05667","longitude":"32.96096","city_name":"Adareil","timezone":"Africa\/Juba"},{"gmt":"7","iata_code":"AEG","country_iso2":"ID","geoname_id":"1214618","latitude":"1.399722","longitude":"99.416664","city_name":"Aek Godang","timezone":"Asia\/Jakarta"},{"gmt":"1","iata_code":"AEH","country_iso2":"TD","geoname_id":null,"latitude":"13.851389","longitude":"20.850834","city_name":"Abeche","timezone":"Africa\/Ndjamena"},{"gmt":"1","iata_code":"AEI","country_iso2":"ES","geoname_id":"2522013","latitude":"36.1289","longitude":"-5.441301","city_name":"Algeciras","timezone":"Europe\/Madrid"},{"gmt":"10","iata_code":"AEK","country_iso2":"PG","geoname_id":"2100468","latitude":"-7.366667","longitude":"146.28334","city_name":"Aseki","timezone":"Pacific\/Port_Moresby"},{"gmt":"-6","iata_code":"AEL","country_iso2":"US","geoname_id":"5016024","latitude":"43.65","longitude":"-93.36667","city_name":"Albert Lea","timezone":"America\/Chicago"},{"gmt":null,"iata_code":"AEO","country_iso2":"MR","geoname_id":null,"latitude":"16.709167","longitude":"-9.635556","city_name":"Aioun El Atrouss","timezone":"Africa\/Nouakchott"},{"gmt":"3","iata_code":"AER","country_iso2":"RU","geoname_id":"491422","latitude":"43.44884","longitude":"39.941105","city_name":"Sochi","timezone":"Europe\/Moscow"},{"gmt":"1","iata_code":"AES","country_iso2":"NO","geoname_id":"3163392","latitude":"62.559643","longitude":"6.116605","city_name":"Aalesund","timezone":"Europe\/Oslo"},{"gmt":"-9","iata_code":"AET","country_iso2":"US","geoname_id":"5879223","latitude":"66.56167","longitude":"-152.65834","city_name":"Allakaket","timezone":"America\/Anchorage"},{"gmt":"3.30","iata_code":"AEU","country_iso2":"IR","geoname_id":null,"latitude":"25.8875","longitude":"55.041668","city_name":"Abu Musa","timezone":"Asia\/Tehran"},{"gmt":"-6","iata_code":"AEX","country_iso2":"US","geoname_id":"4314550","latitude":"31.311294","longitude":"-92.445137","city_name":"Alexandria","timezone":"America\/Chicago"},{"gmt":null,"iata_code":"AEY","country_iso2":"IS","geoname_id":"2633274","latitude":"65.654564","longitude":"-18.075068","city_name":"Akureyri","timezone":"Atlantic\/Reykjavik"},{"gmt":"-3","iata_code":"AFA","country_iso2":"AR","geoname_id":"3836669","latitude":"-34.58917","longitude":"-68.40056","city_name":"San Rafael","timezone":"America\/Argentina\/Mendoza"},{"gmt":"2","iata_code":"AFD","country_iso2":"ZA","geoname_id":"964432","latitude":"-33.583332","longitude":"26.883333","city_name":"Port Alfred","timezone":"Africa\/Johannesburg"},{"gmt":"-5","iata_code":"AFI","country_iso2":"CO","geoname_id":"3674962","latitude":"6.916667","longitude":"-75.066666","city_name":"Amalfi","timezone":"America\/Bogota"},{"gmt":"-4","iata_code":"AFL","country_iso2":"BR","geoname_id":"6316343","latitude":"-9.872456","longitude":"-56.104767","city_name":"Alta Floresta","timezone":"America\/Cuiaba"},{"gmt":"-5","iata_code":"AFN","country_iso2":"US","geoname_id":"5088061","latitude":"42.833332","longitude":"-72.066666","city_name":"Jaffrey","timezone":"America\/New_York"},{"gmt":"-7","iata_code":"AFO","country_iso2":"US","geoname_id":"5828648","latitude":"42.733334","longitude":"-110.933334","city_name":"Afton","timezone":"America\/Denver"},{"gmt":"10","iata_code":"AFR","country_iso2":"PG","geoname_id":"2101332","latitude":"-9.133333","longitude":"148.38333","city_name":"Afore","timezone":"Pacific\/Port_Moresby"},{"gmt":"5","iata_code":"AFS","country_iso2":"UZ","geoname_id":null,"latitude":"41.61361","longitude":"64.233055","city_name":"Zarafshan","timezone":"Asia\/Samarkand"},{"gmt":"11","iata_code":"AFT","country_iso2":"SB","geoname_id":null,"latitude":"-9.2","longitude":"160.85","city_name":"Afutara","timezone":"Pacific\/Guadalcanal"},{"gmt":"3","iata_code":"AFY","country_iso2":"TR","geoname_id":"325303","latitude":"38.733334","longitude":"30.6","city_name":"Afyon","timezone":"Europe\/Istanbul"},{"gmt":"3.30","iata_code":"AFZ","country_iso2":"IR","geoname_id":null,"latitude":"36.171513","longitude":"57.60332","city_name":"Sabzevar","timezone":"Asia\/Tehran"},{"gmt":null,"iata_code":"AGA","country_iso2":"MA","geoname_id":"2561668","latitude":"30.378326","longitude":"-9.555895","city_name":"Agadir","timezone":"Africa\/Casablanca"},{"gmt":"9","iata_code":"AGD","country_iso2":"ID","geoname_id":"1636308","latitude":"-1.383333","longitude":"133.86667","city_name":"Anggi","timezone":"Asia\/Jayapura"},{"gmt":"1","iata_code":"AGE","country_iso2":"DE","geoname_id":"2814266","latitude":"53.783333","longitude":"7.916667","city_name":"Wangerooge","timezone":"Europe\/Berlin"},{"gmt":"1","iata_code":"AGF","country_iso2":"FR","geoname_id":"3038634","latitude":"44.17361","longitude":"0.598611","city_name":"Agen","timezone":"Europe\/Paris"},{"gmt":"10","iata_code":"AGG","country_iso2":"PG","geoname_id":"2100765","latitude":"-4.168611","longitude":"144.07388","city_name":"Angoram","timezone":"Pacific\/Port_Moresby"},{"gmt":"1","iata_code":"AGH","country_iso2":"SE","geoname_id":"2725900","latitude":"56.2432","longitude":"12.861509","city_name":"Angelholm","timezone":"Europe\/Stockholm"},{"gmt":"-3","iata_code":"AGI","country_iso2":"SR","geoname_id":null,"latitude":"5.833333","longitude":"-56.833332","city_name":"Wageningen","timezone":"America\/Paramaribo"},{"gmt":"9","iata_code":"AGJ","country_iso2":"JP","geoname_id":"1856035","latitude":"26.589722","longitude":"127.23805","city_name":"Aguni","timezone":"Asia\/Tokyo"},{"gmt":"10","iata_code":"AGK","country_iso2":"PG","geoname_id":"2095091","latitude":"-6.403333","longitude":"143.84666","city_name":"Kagua","timezone":"Pacific\/Port_Moresby"},{"gmt":"10","iata_code":"AGL","country_iso2":"PG","geoname_id":"2132313","latitude":"-9.340278","longitude":"149.15527","city_name":"Wanigela","timezone":"Pacific\/Port_Moresby"},{"gmt":"-3","iata_code":"AGM","country_iso2":"GL","geoname_id":"3424607","latitude":"65.6","longitude":"-37.683334","city_name":"Tasiilaq","timezone":"America\/Godthab"},{"gmt":"-9","iata_code":"AGN","country_iso2":"US","geoname_id":"5844374","latitude":"57.503887","longitude":"-134.58333","city_name":"Angoon","timezone":"America\/Juneau"},{"gmt":"-6","iata_code":"AGO","country_iso2":"US","geoname_id":"4115181","latitude":"33.266666","longitude":"-93.23333","city_name":"Magnolia","timezone":"America\/Chicago"},{"gmt":"1","iata_code":"AGP","country_iso2":"ES","geoname_id":"2514256","latitude":"36.719648","longitude":"-4.420016","city_name":"Malaga","timezone":"Europe\/Madrid"},{"gmt":"2","iata_code":"AGQ","country_iso2":"GR","geoname_id":"252946","latitude":"38.604168","longitude":"21.351944","city_name":"Agrinion","timezone":"Europe\/Athens"},{"gmt":"5.30","iata_code":"AGR","country_iso2":"IN","geoname_id":"1279261","latitude":"27.158333","longitude":"77.962776","city_name":"Agra","timezone":"Asia\/Kolkata"},{"gmt":"-5","iata_code":"AGS","country_iso2":"US","geoname_id":"4180531","latitude":"33.474246","longitude":"-82.00967","city_name":"Augusta","timezone":"America\/New_York"},{"gmt":"-4","iata_code":"AGT","country_iso2":"PY","geoname_id":"3439101","latitude":"-25.5","longitude":"-54.833332","city_name":"Ciudad Del Este","timezone":"America\/Asuncion"},{"gmt":"-6","iata_code":"AGU","country_iso2":"MX","geoname_id":"4019233","latitude":"21.701416","longitude":"-102.31374","city_name":"Aguascalientes","timezone":"America\/Mexico_City"},{"gmt":"-4","iata_code":"AGV","country_iso2":"VE","geoname_id":null,"latitude":"9.552222","longitude":"-69.23333","city_name":"Acarigua","timezone":"America\/Caracas"},{"gmt":"10","iata_code":"AGW","country_iso2":"AU","geoname_id":"2144209","latitude":"-12.15","longitude":"142.15","city_name":"Agnew","timezone":"Australia\/Brisbane"},{"gmt":"5.30","iata_code":"AGX","country_iso2":"IN","geoname_id":null,"latitude":"10.828967","longitude":"72.17987","city_name":"Agatti Island","timezone":"Asia\/Kolkata"},{"gmt":"2","iata_code":"AGZ","country_iso2":"ZA","geoname_id":null,"latitude":"-29.05","longitude":"18.85","city_name":"Aggeneys","timezone":"Africa\/Johannesburg"},{"gmt":"3","iata_code":"AHB","country_iso2":"SA","geoname_id":"110690","latitude":"18.23429","longitude":"42.657574","city_name":"Abha","timezone":"Asia\/Riyadh"},{"gmt":"-8","iata_code":"AHC","country_iso2":"US","geoname_id":"5565015","latitude":"40.15","longitude":"-120.13333","city_name":"Herlong","timezone":"America\/Los_Angeles"},{"gmt":"-10","iata_code":"AHE","country_iso2":"PF","geoname_id":null,"latitude":"-14.428056","longitude":"-146.25694","city_name":"Ahe","timezone":"Pacific\/Tahiti"},{"gmt":"-6","iata_code":"AHF","country_iso2":"US","geoname_id":"5071348","latitude":"40.3","longitude":"-99.9","city_name":"Arapahoe","timezone":"America\/Chicago"},{"gmt":"-6","iata_code":"AHH","country_iso2":"US","geoname_id":"5037649","latitude":"45.3","longitude":"-92.35","city_name":"Amery","timezone":"America\/Chicago"},{"gmt":"9","iata_code":"AHI","country_iso2":"ID","geoname_id":"1651531","latitude":"-3.333333","longitude":"128.91667","city_name":"Amahai","timezone":"Asia\/Jayapura"},{"gmt":"-4","iata_code":"AHL","country_iso2":"GY","geoname_id":null,"latitude":"2.483333","longitude":"-59.316666","city_name":"Aishalton","timezone":"America\/Guyana"},{"gmt":"-8","iata_code":"AHM","country_iso2":"US","geoname_id":null,"latitude":null,"longitude":null,"city_name":"Ashland","timezone":"America\/Los_Angeles"},{"gmt":"-5","iata_code":"AHN","country_iso2":"US","geoname_id":"4180386","latitude":"33.95195","longitude":"-83.32472","city_name":"Athens","timezone":"America\/New_York"},{"gmt":"1","iata_code":"AHO","country_iso2":"IT","geoname_id":"3183284","latitude":"40.630405","longitude":"8.295891","city_name":"Alghero","timezone":"Europe\/Rome"},{"gmt":"-6","iata_code":"AHS","country_iso2":"HN","geoname_id":null,"latitude":"15.441667","longitude":"-84.425","city_name":"Ahuas","timezone":"America\/Tegucigalpa"},{"gmt":"-10","iata_code":"AHT","country_iso2":"US","geoname_id":null,"latitude":"51.5","longitude":"179","city_name":"Amchitka","timezone":"America\/Adak"},{"gmt":null,"iata_code":"AHU","country_iso2":"MA","geoname_id":"2558545","latitude":"35.17972","longitude":"-3.836944","city_name":"Al Hoceima","timezone":"Africa\/Casablanca"},{"gmt":"4","iata_code":"AHW","country_iso2":"OM","geoname_id":null,"latitude":"31.34292","longitude":"48.74668","city_name":"Saih Rawl","timezone":"Asia\/Muscat"},{"gmt":"3","iata_code":"AHY","country_iso2":"MG","geoname_id":null,"latitude":"-20.016666","longitude":"45.533333","city_name":"Ambatolahy","timezone":"Indian\/Antananarivo"},{"gmt":"1","iata_code":"AHZ","country_iso2":"FR","geoname_id":"3008406","latitude":"45.083332","longitude":"6.083333","city_name":"Alpe D Huez","timezone":"Europe\/Paris"},{"gmt":"-7","iata_code":"AIA","country_iso2":"US","geoname_id":"5693164","latitude":"42.051666","longitude":"-102.80666","city_name":"Alliance","timezone":"America\/Denver"},{"gmt":"-9","iata_code":"AIB","country_iso2":"US","geoname_id":null,"latitude":"56.233334","longitude":"-132.38333","city_name":"Anita Bay","timezone":"America\/Sitka"},{"gmt":"12","iata_code":"AIC","country_iso2":"MH","geoname_id":null,"latitude":"7.5","longitude":"170.83333","city_name":"Airok","timezone":"Pacific\/Majuro"},{"gmt":"-5","iata_code":"AID","country_iso2":"US","geoname_id":"4917592","latitude":"40.166668","longitude":"-85.683334","city_name":"Anderson","timezone":"America\/Indiana\/Indianapolis"},{"gmt":"10","iata_code":"AIE","country_iso2":"PG","geoname_id":null,"latitude":"-5.166667","longitude":"144.66667","city_name":"Aiome","timezone":"Pacific\/Port_Moresby"},{"gmt":"-3","iata_code":"AIF","country_iso2":"BR","geoname_id":"3471374","latitude":"-22.666668","longitude":"-50.416668","city_name":"Assis","timezone":"America\/Sao_Paulo"},{"gmt":"1","iata_code":"AIG","country_iso2":"CF","geoname_id":null,"latitude":"6.516667","longitude":"23.25","city_name":"Yalinga","timezone":"Africa\/Bangui"},{"gmt":"10","iata_code":"AIH","country_iso2":"PG","geoname_id":"2101258","latitude":"-7.348611","longitude":"141.26639","city_name":"Aiambak","timezone":"Pacific\/Port_Moresby"},{"gmt":"3","iata_code":"AII","country_iso2":"DJ","geoname_id":null,"latitude":"11.15","longitude":"42.716667","city_name":"Alisabieh","timezone":"Africa\/Djibouti"},{"gmt":"-5","iata_code":"AIK","country_iso2":"US","geoname_id":"4575352","latitude":"33.566666","longitude":"-81.71667","city_name":"Aiken","timezone":"America\/New_York"},{"gmt":"-5","iata_code":"AIL","country_iso2":"PA","geoname_id":null,"latitude":"9.25","longitude":"-78.083336","city_name":"Ailigandi","timezone":"America\/Panama"},{"gmt":"12","iata_code":"AIM","country_iso2":"MH","geoname_id":null,"latitude":"10.2","longitude":"169.98334","city_name":"Ailuk Island","timezone":"Pacific\/Majuro"},{"gmt":"-9","iata_code":"AIN","country_iso2":"US","geoname_id":"5877543","latitude":"70.63333","longitude":"-160.03334","city_name":"Wainwright","timezone":"America\/Anchorage"},{"gmt":"-6","iata_code":"AIO","country_iso2":"US","geoname_id":"5074472","latitude":"41.4","longitude":"-95.01667","city_name":"Atlantic","timezone":"America\/Chicago"},{"gmt":"12","iata_code":"AIP","country_iso2":"MH","geoname_id":null,"latitude":"7.266667","longitude":"168.81667","city_name":"Ailinglapalap Island","timezone":"Pacific\/Majuro"},{"gmt":"-4","iata_code":"AIR","country_iso2":"BR","geoname_id":null,"latitude":"-10.25","longitude":"-59.38333","city_name":"Aripuana","timezone":"America\/Cuiaba"},{"gmt":"12","iata_code":"AIS","country_iso2":"KI","geoname_id":null,"latitude":"-2.65","longitude":"176.83333","city_name":"Arorae Island","timezone":"Pacific\/Tarawa"},{"gmt":"-10","iata_code":"AIT","country_iso2":"CK","geoname_id":null,"latitude":"-18.829443","longitude":"-159.767","city_name":"Aitutaki","timezone":"Pacific\/Rarotonga"},{"gmt":"-10","iata_code":"AIU","country_iso2":"CK","geoname_id":null,"latitude":"-20.033333","longitude":"-158.1","city_name":"Atiu Island","timezone":"Pacific\/Rarotonga"},{"gmt":"-6","iata_code":"AIV","country_iso2":"US","geoname_id":"4829885","latitude":"33.13333","longitude":"-88.15","city_name":"Aliceville","timezone":"America\/Chicago"},{"gmt":"2","iata_code":"AIW","country_iso2":"NA","geoname_id":null,"latitude":"-27.983334","longitude":"17.583332","city_name":"Ai-ais","timezone":"Africa\/Windhoek"},{"gmt":"-5","iata_code":"AIY","country_iso2":"US","geoname_id":"4500546","latitude":"39.36","longitude":"-74.45722","city_name":"Atlantic City","timezone":"America\/New_York"},{"gmt":"-6","iata_code":"AIZ","country_iso2":"US","geoname_id":"4402040","latitude":"38.09833","longitude":"-92.54722","city_name":"Kaiser","timezone":"America\/Chicago"},{"gmt":"1","iata_code":"AJA","country_iso2":"FR","geoname_id":"3038334","latitude":"41.91987","longitude":"8.794013","city_name":"Ajaccio","timezone":"Europe\/Paris"},{"gmt":"3","iata_code":"AJF","country_iso2":"SA","geoname_id":null,"latitude":"29.788668","longitude":"40.101486","city_name":"Sakaka Al Jouf","timezone":"Asia\/Riyadh"},{"gmt":"3","iata_code":"AJI","country_iso2":"TR","geoname_id":"309647","latitude":"39.65","longitude":"43.025","city_name":"Agri","timezone":"Europe\/Istanbul"},{"gmt":null,"iata_code":"AJJ","country_iso2":"MR","geoname_id":null,"latitude":"19.730556","longitude":"-14.374444","city_name":"Akjoujt","timezone":"Africa\/Nouakchott"},{"gmt":"3.30","iata_code":"AJK","country_iso2":"IR","geoname_id":"7431358","latitude":"34.13333","longitude":"49.833332","city_name":"Araak","timezone":"Asia\/Tehran"},{"gmt":"5.30","iata_code":"AJL","country_iso2":"IN","geoname_id":null,"latitude":"23.838985","longitude":"92.62482","city_name":"Aizawl","timezone":"Asia\/Kolkata"},{"gmt":"3","iata_code":"AJN","country_iso2":"KM","geoname_id":null,"latitude":"-12.126389","longitude":"44.42972","city_name":"Anjouan","timezone":"Indian\/Comoro"},{"gmt":"1","iata_code":"AJR","country_iso2":"SE","geoname_id":"2725136","latitude":"65.59139","longitude":"19.285557","city_name":"Arvidsjaur","timezone":"Europe\/Stockholm"},{"gmt":"-7","iata_code":"AJS","country_iso2":"MX","geoname_id":null,"latitude":"26.833332","longitude":"-113.666664","city_name":"Abreojos","timezone":"America\/Mazatlan"},{"gmt":"-3","iata_code":"AJU","country_iso2":"BR","geoname_id":"3471872","latitude":"-10.987206","longitude":"-37.072792","city_name":"Aracaju","timezone":"America\/Maceio"},{"gmt":"1","iata_code":"AJY","country_iso2":"NE","geoname_id":null,"latitude":"16.964167","longitude":"7.993056","city_name":"Agades","timezone":"Africa\/Niamey"},{"gmt":"8","iata_code":"AKA","country_iso2":"CN","geoname_id":"1789065","latitude":"32.7091","longitude":"108.936","city_name":"Ankang","timezone":"Asia\/Shanghai"},{"gmt":"-10","iata_code":"AKB","country_iso2":"US","geoname_id":"5879729","latitude":"52.21722","longitude":"-174.20084","city_name":"Atka","timezone":"America\/Adak"},{"gmt":"5.30","iata_code":"AKD","country_iso2":"IN","geoname_id":null,"latitude":"20.666668","longitude":"77.083336","city_name":"Akola","timezone":"Asia\/Kolkata"},{"gmt":"1","iata_code":"AKE","country_iso2":"GA","geoname_id":null,"latitude":"-1.172222","longitude":"13.916667","city_name":"Akieni","timezone":"Africa\/Libreville"},{"gmt":"2","iata_code":"AKF","country_iso2":"LY","geoname_id":null,"latitude":"24.2","longitude":"23.333332","city_name":"Kufrah","timezone":"Africa\/Tripoli"},{"gmt":"10","iata_code":"AKG","country_iso2":"PG","geoname_id":null,"latitude":"-3.633333","longitude":"142.01666","city_name":"Anguganak","timezone":"Pacific\/Port_Moresby"},{"gmt":"3","iata_code":"AKH","country_iso2":"SA","geoname_id":null,"latitude":"24.063334","longitude":"47.580555","city_name":"Al Kharj","timezone":"Asia\/Riyadh"},{"gmt":"-9","iata_code":"AKI","country_iso2":"US","geoname_id":"5878993","latitude":"60.905556","longitude":"-161.22333","city_name":"Akiak","timezone":"America\/Anchorage"},{"gmt":"9","iata_code":"AKJ","country_iso2":"JP","geoname_id":"2130629","latitude":"43.67109","longitude":"142.45454","city_name":"Asahikawa","timezone":"Asia\/Tokyo"},{"gmt":"-9","iata_code":"AKK","country_iso2":"US","geoname_id":"5878982","latitude":"56.944443","longitude":"-154.16667","city_name":"Akhiok","timezone":"America\/Anchorage"},{"gmt":"12","iata_code":"AKL","country_iso2":"NZ","geoname_id":"2193733","latitude":"-36.84846","longitude":"174.763331","city_name":"Auckland","timezone":"Pacific\/Auckland"},{"gmt":"1","iata_code":"AKM","country_iso2":"TD","geoname_id":"2424121","latitude":"10.883333","longitude":"19.816668","city_name":"Zakouma","timezone":"Africa\/Ndjamena"},{"gmt":"-9","iata_code":"AKN","country_iso2":"US","geoname_id":"5866330","latitude":"58.68274","longitude":"-156.66902","city_name":"King Salmon","timezone":"America\/Anchorage"},{"gmt":"-7","iata_code":"AKO","country_iso2":"US","geoname_id":null,"latitude":"40.166668","longitude":"-103.21667","city_name":"Akron","timezone":"America\/Denver"},{"gmt":"-9","iata_code":"AKP","country_iso2":"US","geoname_id":null,"latitude":"68.1375","longitude":"-151.74","city_name":"Anaktuvuk","timezone":"America\/Anchorage"},{"gmt":"7","iata_code":"AKQ","country_iso2":"ID","geoname_id":"1624917","latitude":"-4.616667","longitude":"105.23333","city_name":"Astraksetra","timezone":"Asia\/Jakarta"},{"gmt":"1","iata_code":"AKR","country_iso2":"NG","geoname_id":"2350841","latitude":"7.25","longitude":"5.083333","city_name":"Akure","timezone":"Africa\/Lagos"},{"gmt":"11","iata_code":"AKS","country_iso2":"SB","geoname_id":"2109701","latitude":"-8.697778","longitude":"160.68083","city_name":"Auki","timezone":"Pacific\/Guadalcanal"},{"gmt":"2","iata_code":"AKT","country_iso2":"CY","geoname_id":null,"latitude":"34.583332","longitude":"32.983334","city_name":"Akrotiri","timezone":"Asia\/Nicosia"},{"gmt":"8","iata_code":"AKU","country_iso2":"CN","geoname_id":"1529660","latitude":"41.259983","longitude":"80.29262","city_name":"Aksu","timezone":"Asia\/Shanghai"},{"gmt":"-5","iata_code":"AKV","country_iso2":"CA","geoname_id":"5882994","latitude":"60.733334","longitude":"-78.583336","city_name":"Akulivik","timezone":"America\/Montreal"},{"gmt":"3.30","iata_code":"AKW","country_iso2":"IR","geoname_id":null,"latitude":"30.75","longitude":"49.683334","city_name":"Aghajari","timezone":"Asia\/Tehran"},{"gmt":"5","iata_code":"AKX","country_iso2":"KZ","geoname_id":"610611","latitude":"50.249336","longitude":"57.211403","city_name":"Aktyubinsk","timezone":"Asia\/Aqtobe"},{"gmt":"6.30","iata_code":"AKY","country_iso2":"MM","geoname_id":"1295765","latitude":"20.130278","longitude":"92.88028","city_name":"Sittwe","timezone":"Asia\/Rangoon"},{"gmt":"6","iata_code":"ALA","country_iso2":"KZ","geoname_id":"1526384","latitude":"43.255058","longitude":"76.912628","city_name":"Almaty","timezone":"Asia\/Almaty"},{"gmt":"-5","iata_code":"ALB","country_iso2":"US","geoname_id":"5106834","latitude":"42.652579","longitude":"-73.756232","city_name":"Albany","timezone":"America\/New_York"},{"gmt":"1","iata_code":"ALC","country_iso2":"ES","geoname_id":"2521978","latitude":"38.34521","longitude":"-0.480994","city_name":"Alicante","timezone":"Europe\/Madrid"},{"gmt":"-5","iata_code":"ALD","country_iso2":"PE","geoname_id":null,"latitude":"-11.683333","longitude":"-69.333336","city_name":"Alerta","timezone":"America\/Lima"},{"gmt":"-6","iata_code":"ALE","country_iso2":"US","geoname_id":"5516203","latitude":"30.416668","longitude":"-103.75","city_name":"Alpine","timezone":"America\/Chicago"},{"gmt":"1","iata_code":"ALF","country_iso2":"NO","geoname_id":"847633","latitude":"69.977165","longitude":"23.355808","city_name":"Alta","timezone":"Europe\/Oslo"},{"gmt":"1","iata_code":"ALG","country_iso2":"DZ","geoname_id":"2507480","latitude":"36.70058","longitude":"3.21167","city_name":"Algiers","timezone":"Africa\/Algiers"},{"gmt":"8","iata_code":"ALH","country_iso2":"AU","geoname_id":"2077963","latitude":"-34.944996","longitude":"117.804","city_name":"Albany","timezone":"Australia\/Perth"},{"gmt":"-6","iata_code":"ALI","country_iso2":"US","geoname_id":"4670234","latitude":"27.75","longitude":"-98.066666","city_name":"Alice","timezone":"America\/Chicago"},{"gmt":"2","iata_code":"ALJ","country_iso2":"ZA","geoname_id":null,"latitude":"-28.567223","longitude":"16.536388","city_name":"Alexander Bay","timezone":"Africa\/Johannesburg"},{"gmt":"3","iata_code":"ALK","country_iso2":"ET","geoname_id":null,"latitude":"7.966667","longitude":"39.11667","city_name":"Asela","timezone":"Africa\/Addis_Ababa"},{"gmt":"1","iata_code":"ALL","country_iso2":"IT","geoname_id":"3183343","latitude":"44.05","longitude":"8.216667","city_name":"Albenga","timezone":"Europe\/Rome"},{"gmt":"-7","iata_code":"ALM","country_iso2":"US","geoname_id":"5454627","latitude":"32.899532","longitude":"-105.960265","city_name":"Alamogordo","timezone":"America\/Denver"},{"gmt":"-6","iata_code":"ALN","country_iso2":"US","geoname_id":"4407066","latitude":"38.891666","longitude":"-90.04833","city_name":"Alton","timezone":"America\/Chicago"},{"gmt":"-6","iata_code":"ALO","country_iso2":"US","geoname_id":"4880889","latitude":"42.55611","longitude":"-92.39972","city_name":"Waterloo","timezone":"America\/Chicago"},{"gmt":"2","iata_code":"ALP","country_iso2":"SY","geoname_id":"170063","latitude":"36.185352","longitude":"37.227074","city_name":"Aleppo","timezone":"Asia\/Damascus"},{"gmt":"-3","iata_code":"ALQ","country_iso2":"BR","geoname_id":null,"latitude":"-29.799723","longitude":"-55.763332","city_name":"Alegrete","timezone":"America\/Sao_Paulo"},{"gmt":"12","iata_code":"ALR","country_iso2":"NZ","geoname_id":"2184707","latitude":"-45.21389","longitude":"169.36945","city_name":"Alexandra","timezone":"Pacific\/Auckland"},{"gmt":"-7","iata_code":"ALS","country_iso2":"US","geoname_id":"5411479","latitude":"37.43667","longitude":"-105.86667","city_name":"Alamosa","timezone":"America\/Denver"},{"gmt":"-3","iata_code":"ALT","country_iso2":"BR","geoname_id":"3407980","latitude":"-1.933333","longitude":"-54.766666","city_name":"Alenquer","timezone":"America\/Santarem"},{"gmt":"3","iata_code":"ALU","country_iso2":"SO","geoname_id":null,"latitude":"11.966667","longitude":"50.8","city_name":"Alula","timezone":"Africa\/Mogadishu"},{"gmt":"-8","iata_code":"ALW","country_iso2":"US","geoname_id":"5814916","latitude":"46.094723","longitude":"-118.291115","city_name":"Walla Walla","timezone":"America\/Los_Angeles"},{"gmt":"-6","iata_code":"ALX","country_iso2":"US","geoname_id":"4829843","latitude":"32.933334","longitude":"-85.95","city_name":"Alexander City","timezone":"America\/Chicago"},{"gmt":"2","iata_code":"ALY","country_iso2":"EG","geoname_id":"361058","latitude":"31.2135","longitude":"29.9443","city_name":"Alexandria","timezone":"Africa\/Cairo"},{"gmt":"-9","iata_code":"ALZ","country_iso2":"US","geoname_id":null,"latitude":"56.895832","longitude":"-154.24583","city_name":"Alitak","timezone":"America\/Anchorage"},{"gmt":"-6","iata_code":"AMA","country_iso2":"US","geoname_id":"5516233","latitude":"35.221997","longitude":"-101.831297","city_name":"Amarillo","timezone":"America\/Chicago"},{"gmt":"3","iata_code":"AMB","country_iso2":"MG","geoname_id":null,"latitude":"-13.183333","longitude":"48.983334","city_name":"Ambilobe","timezone":"Indian\/Antananarivo"},{"gmt":"1","iata_code":"AMC","country_iso2":"TD","geoname_id":null,"latitude":"11.033333","longitude":"20.283333","city_name":"Am Timan","timezone":"Africa\/Ndjamena"},{"gmt":"5.30","iata_code":"AMD","country_iso2":"IN","geoname_id":"1279233","latitude":"23.06639","longitude":"72.62417","city_name":"Ahmedabad","timezone":"Asia\/Kolkata"},{"gmt":"2","iata_code":"AME","country_iso2":"MZ","geoname_id":null,"latitude":"-15.833333","longitude":"37.583332","city_name":"Alto Molocue","timezone":"Africa\/Maputo"},{"gmt":"10","iata_code":"AMF","country_iso2":"PG","geoname_id":"2100991","latitude":"-4.166667","longitude":"141.66667","city_name":"Ama","timezone":"Pacific\/Port_Moresby"},{"gmt":"10","iata_code":"AMG","country_iso2":"PG","geoname_id":null,"latitude":"-4.616667","longitude":"143.7","city_name":"Amboin","timezone":"Pacific\/Port_Moresby"},{"gmt":"3","iata_code":"AMH","country_iso2":"ET","geoname_id":null,"latitude":"6.036111","longitude":"37.576942","city_name":"Arba Mintch","timezone":"Africa\/Addis_Ababa"},{"gmt":"8","iata_code":"AMI","country_iso2":"ID","geoname_id":null,"latitude":"-8.563165","longitude":"116.10237","city_name":"Mataram","timezone":"Asia\/Makassar"},{"gmt":"-3","iata_code":"AMJ","country_iso2":"BR","geoname_id":null,"latitude":"-16.183332","longitude":"-40.683334","city_name":"Almenara","timezone":"America\/Sao_Paulo"},{"gmt":"-5","iata_code":"AML","country_iso2":"PA","geoname_id":"3711668","latitude":"8.266667","longitude":"-82.86667","city_name":"Puerto Armuellas","timezone":"America\/Panama"},{"gmt":"2","iata_code":"AMM","country_iso2":"JO","geoname_id":"250441","latitude":"31.722534","longitude":"35.98932","city_name":"Amman","timezone":"Asia\/Amman"},{"gmt":"-5","iata_code":"AMN","country_iso2":"US","geoname_id":"4998830","latitude":"43.38333","longitude":"-84.65","city_name":"Alma","timezone":"America\/Detroit"},{"gmt":"1","iata_code":"AMO","country_iso2":"TD","geoname_id":"2428394","latitude":"14.116667","longitude":"15.316667","city_name":"Mao","timezone":"Africa\/Ndjamena"},{"gmt":"3","iata_code":"AMP","country_iso2":"MG","geoname_id":null,"latitude":"-24.7","longitude":"44.733334","city_name":"Ampanihy","timezone":"Indian\/Antananarivo"},{"gmt":"9","iata_code":"AMQ","country_iso2":"ID","geoname_id":"1651531","latitude":"-3.704996","longitude":"128.08888","city_name":"Ambon","timezone":"Asia\/Jayapura"},{"gmt":"12","iata_code":"AMR","country_iso2":"MH","geoname_id":null,"latitude":"7.033333","longitude":"171.23334","city_name":"Arno","timezone":"Pacific\/Majuro"},{"gmt":"1","iata_code":"AMS","country_iso2":"NL","geoname_id":"2759794","latitude":"52.373056","longitude":"4.892222","city_name":"Amsterdam","timezone":"Europe\/Amsterdam"},{"gmt":"9.30","iata_code":"AMT","country_iso2":"AU","geoname_id":null,"latitude":"-26.766666","longitude":"132.03334","city_name":"Amata","timezone":"Australia\/Adelaide"},{"gmt":"10","iata_code":"AMU","country_iso2":"PG","geoname_id":"2100976","latitude":"-3.516667","longitude":"141.15","city_name":"Amanab","timezone":"Pacific\/Port_Moresby"},{"gmt":"3","iata_code":"AMV","country_iso2":"RU","geoname_id":null,"latitude":"69.76667","longitude":"61.55","city_name":"Amderma","timezone":"Europe\/Moscow"},{"gmt":"-6","iata_code":"AMW","country_iso2":"US","geoname_id":"4846834","latitude":"41.994167","longitude":"-93.61833","city_name":"Ames","timezone":"America\/Chicago"},{"gmt":"9.30","iata_code":"AMX","country_iso2":"AU","geoname_id":null,"latitude":"-21.74","longitude":"135.24","city_name":"Ammaroo","timezone":"Australia\/Darwin"},{"gmt":"3","iata_code":"AMY","country_iso2":"MG","geoname_id":null,"latitude":"-17.683332","longitude":"45.666668","city_name":"Ambatomainty","timezone":"Indian\/Antananarivo"},{"gmt":"12","iata_code":"AMZ","country_iso2":"NZ","geoname_id":"2193733","latitude":"-37.033333","longitude":"174.96666","city_name":"Ardmore","timezone":"Pacific\/Auckland"},{"gmt":"-8","iata_code":"ANA","country_iso2":"US","geoname_id":"5323810","latitude":"33.816666","longitude":"-117.933334","city_name":"Anaheim","timezone":"America\/Los_Angeles"},{"gmt":"-6","iata_code":"ANB","country_iso2":"US","geoname_id":"4081914","latitude":"33.659826","longitude":"-85.831632","city_name":"Anniston","timezone":"America\/Chicago"},{"gmt":"-9","iata_code":"ANC","country_iso2":"US","geoname_id":"5879400","latitude":"61.218056","longitude":"-149.900278","city_name":"Anchorage","timezone":"America\/Anchorage"},{"gmt":"-5","iata_code":"AND","country_iso2":"US","geoname_id":"4569298","latitude":"34.49361","longitude":"-82.71","city_name":"Anderson","timezone":"America\/New_York"},{"gmt":"1","iata_code":"ANE","country_iso2":"FR","geoname_id":"3037656","latitude":"47.478419","longitude":"-0.563166","city_name":"Angers","timezone":"Europe\/Paris"},{"gmt":"-4","iata_code":"ANF","country_iso2":"CL","geoname_id":"3899539","latitude":"-23.449","longitude":"-70.44079","city_name":"Antofagasta","timezone":"America\/Santiago"},{"gmt":"1","iata_code":"ANG","country_iso2":"FR","geoname_id":"3027064","latitude":"45.733334","longitude":"0.216667","city_name":"Angouleme","timezone":"Europe\/Paris"},{"gmt":"11","iata_code":"ANH","country_iso2":"SB","geoname_id":null,"latitude":"-8.983333","longitude":"160.5","city_name":"Anuha Island Resort","timezone":"Pacific\/Guadalcanal"},{"gmt":"-9","iata_code":"ANI","country_iso2":"US","geoname_id":"5879487","latitude":"61.574398","longitude":"-159.53697","city_name":"Aniak","timezone":"America\/Anchorage"},{"gmt":"1","iata_code":"ANJ","country_iso2":"CG","geoname_id":"2254814","latitude":"-2.85","longitude":"13.833333","city_name":"Zanaga","timezone":"Africa\/Brazzaville"},{"gmt":"3","iata_code":"ANK","country_iso2":"TR","geoname_id":"323786","latitude":"39.866667","longitude":"39.866667","city_name":"Ankara","timezone":"Europe\/Istanbul"},{"gmt":"1","iata_code":"ANL","country_iso2":"AO","geoname_id":null,"latitude":"-11.25","longitude":"17.25","city_name":"Andulo","timezone":"Africa\/Luanda"},{"gmt":"3","iata_code":"ANM","country_iso2":"MG","geoname_id":"1071296","latitude":"-15","longitude":"50.316666","city_name":"Antalaha","timezone":"Indian\/Antananarivo"},{"gmt":"-9","iata_code":"ANN","country_iso2":"US","geoname_id":"5554428","latitude":"55.036945","longitude":"-131.57056","city_name":"Annette Island","timezone":"America\/Sitka"},{"gmt":"2","iata_code":"ANO","country_iso2":"MZ","geoname_id":null,"latitude":"-16.177778","longitude":"39.936943","city_name":"Angoche","timezone":"Africa\/Maputo"},{"gmt":"-5","iata_code":"ANP","country_iso2":"US","geoname_id":"4140963","latitude":"38.983334","longitude":"-76.5","city_name":"Annapolis","timezone":"America\/New_York"},{"gmt":"-5","iata_code":"ANQ","country_iso2":"US","geoname_id":"4917614","latitude":"41.63333","longitude":"-85","city_name":"Angola","timezone":"America\/Indiana\/Indianapolis"},{"gmt":"1","iata_code":"ANR","country_iso2":"BE","geoname_id":"2803138","latitude":"51.21992","longitude":"4.39625","city_name":"Antwerp","timezone":"Europe\/Brussels"},{"gmt":"-5","iata_code":"ANS","country_iso2":"PE","geoname_id":"3947740","latitude":"-13.716667","longitude":"-73.355835","city_name":"Andahuaylas","timezone":"America\/Lima"},{"gmt":"1","iata_code":"ANT","country_iso2":"AT","geoname_id":null,"latitude":"47.15","longitude":"10.283333","city_name":"St Anton","timezone":"Europe\/Vienna"},{"gmt":"-4","iata_code":"ANU","country_iso2":"AG","geoname_id":"3576022","latitude":"17.108334","longitude":"-61.76389","city_name":"St. John\u0027s","timezone":"America\/Antigua"},{"gmt":"-9","iata_code":"ANV","country_iso2":"US","geoname_id":"5879553","latitude":"62.647778","longitude":"-160.18889","city_name":"Anvik","timezone":"America\/Anchorage"},{"gmt":"-6","iata_code":"ANW","country_iso2":"US","geoname_id":null,"latitude":"42.55","longitude":"-99.86667","city_name":"Ainsworth","timezone":"America\/Chicago"},{"gmt":"1","iata_code":"ANX","country_iso2":"NO","geoname_id":"3163146","latitude":"69.30492","longitude":"16.133326","city_name":"Andenes","timezone":"Europe\/Oslo"},{"gmt":"-6","iata_code":"ANY","country_iso2":"US","geoname_id":"4281730","latitude":"37.15","longitude":"-98.03333","city_name":"Anthony","timezone":"America\/Chicago"},{"gmt":"9.30","iata_code":"ANZ","country_iso2":"AU","geoname_id":null,"latitude":"-25.083332","longitude":"132.16667","city_name":"Angus Downs","timezone":"Australia\/Darwin"},{"gmt":"10","iata_code":"AOA","country_iso2":"PG","geoname_id":"2100552","latitude":"-9.05","longitude":"146.8","city_name":"Aroa","timezone":"Pacific\/Port_Moresby"},{"gmt":"10","iata_code":"AOB","country_iso2":"PG","geoname_id":"2100742","latitude":"-4.916667","longitude":"144.65","city_name":"Annanberg","timezone":"Pacific\/Port_Moresby"},{"gmt":"1","iata_code":"AOC","country_iso2":"DE","geoname_id":"2957773","latitude":"50.983334","longitude":"12.45","city_name":"Altenburg","timezone":"Europe\/Berlin"},{"gmt":"1","iata_code":"AOD","country_iso2":"TD","geoname_id":null,"latitude":"11.474722","longitude":"19.288889","city_name":"Abou Deia","timezone":"Africa\/Ndjamena"},{"gmt":"8","iata_code":"AOG","country_iso2":"CN","geoname_id":"2038632","latitude":"41.166668","longitude":"123.03333","city_name":"Anshan","timezone":"Asia\/Shanghai"},{"gmt":"-5","iata_code":"AOH","country_iso2":"US","geoname_id":"5160783","latitude":"40.766666","longitude":"-84.1","city_name":"Lima","timezone":"America\/New_York"},{"gmt":"1","iata_code":"AOI","country_iso2":"IT","geoname_id":"3183089","latitude":"43.60691","longitude":"13.355723","city_name":"Ancona","timezone":"Europe\/Rome"},{"gmt":"9","iata_code":"AOJ","country_iso2":"JP","geoname_id":"2130658","latitude":"40.738758","longitude":"140.68922","city_name":"Aomori","timezone":"Asia\/Tokyo"},{"gmt":"2","iata_code":"AOK","country_iso2":"GR","geoname_id":"264641","latitude":"35.420685","longitude":"27.146729","city_name":"Karpathos","timezone":"Europe\/Athens"},{"gmt":"-3","iata_code":"AOL","country_iso2":"AR","geoname_id":"3427279","latitude":"-29.683332","longitude":"-57.15","city_name":"Paso De Los Libres","timezone":"America\/Argentina\/Cordoba"},{"gmt":"4","iata_code":"AOM","country_iso2":"OM","geoname_id":"289384","latitude":"40.738758","longitude":"140.68922","city_name":"Adam","timezone":"Asia\/Muscat"},{"gmt":"10","iata_code":"AON","country_iso2":"PG","geoname_id":"2100541","latitude":"-6.333333","longitude":"146","city_name":"Arona","timezone":"Pacific\/Port_Moresby"},{"gmt":"-5","iata_code":"AOO","country_iso2":"US","geoname_id":"5200055","latitude":"40.297222","longitude":"-78.32","city_name":"Martinsburg","timezone":"America\/New_York"},{"gmt":"-5","iata_code":"AOP","country_iso2":"PE","geoname_id":"3699659","latitude":"-2.90464","longitude":"-76.40236","city_name":"Andoas","timezone":"America\/Lima"},{"gmt":"8","iata_code":"AOR","country_iso2":"MY","geoname_id":"1736309","latitude":"6.201171","longitude":"100.405266","city_name":"Alor Setar","timezone":"Asia\/Kuala_Lumpur"},{"gmt":"-9","iata_code":"AOS","country_iso2":"US","geoname_id":null,"latitude":"57.466667","longitude":"-153.83333","city_name":"Amook","timezone":"America\/Anchorage"},{"gmt":"1","iata_code":"AOT","country_iso2":"IT","geoname_id":"3182997","latitude":"45.73861","longitude":"7.3625","city_name":"Aosta","timezone":"Europe\/Rome"},{"gmt":"7","iata_code":"AOU","country_iso2":"LA","geoname_id":"1665046","latitude":"14.8","longitude":"106.833336","city_name":"Attopeu","timezone":"Asia\/Vientiane"},{"gmt":"-4","iata_code":"APB","country_iso2":"BO","geoname_id":null,"latitude":"-14.716667","longitude":"-68.51667","city_name":"Apolo","timezone":"America\/La_Paz"},{"gmt":"-8","iata_code":"APC","country_iso2":"US","geoname_id":"5376095","latitude":"38.212223","longitude":"-122.28","city_name":"Napa","timezone":"America\/Los_Angeles"},{"gmt":"-5","iata_code":"APE","country_iso2":"PE","geoname_id":null,"latitude":"-11.933333","longitude":"-69.083336","city_name":"San Juan Aposento","timezone":"America\/Lima"},{"gmt":"-5","iata_code":"APF","country_iso2":"US","geoname_id":"4165565","latitude":"26.152779","longitude":"-81.775276","city_name":"Naples","timezone":"America\/New_York"},{"gmt":"-5","iata_code":"APG","country_iso2":"US","geoname_id":null,"latitude":"39.5","longitude":"-76.166664","city_name":"Aberdeen","timezone":"America\/New_York"},{"gmt":"-5","iata_code":"APH","country_iso2":"US","geoname_id":null,"latitude":"38.05","longitude":"-77.35","city_name":"Bowling Green","timezone":"America\/New_York"},{"gmt":"-5","iata_code":"API","country_iso2":"CO","geoname_id":"3689790","latitude":"4.068889","longitude":"-73.05194","city_name":"Apiay","timezone":"America\/Bogota"},{"gmt":"-10","iata_code":"APK","country_iso2":"PF","geoname_id":null,"latitude":"-15.416667","longitude":"-146.08333","city_name":"Apataki","timezone":"Pacific\/Tahiti"},{"gmt":"2","iata_code":"APL","country_iso2":"MZ","geoname_id":"1033356","latitude":"-15.101667","longitude":"39.287224","city_name":"Nampula","timezone":"Africa\/Maputo"},{"gmt":"-5","iata_code":"APN","country_iso2":"US","geoname_id":"4984075","latitude":"45.08167","longitude":"-83.55583","city_name":"Alpena","timezone":"America\/Detroit"},{"gmt":"-5","iata_code":"APO","country_iso2":"CO","geoname_id":null,"latitude":"7.817678","longitude":"-76.71766","city_name":"Apartado","timezone":"America\/Bogota"},{"gmt":"10","iata_code":"APP","country_iso2":"PG","geoname_id":null,"latitude":"-8.983333","longitude":"148.13333","city_name":"Asapa","timezone":"Pacific\/Port_Moresby"},{"gmt":"-3","iata_code":"APQ","country_iso2":"BR","geoname_id":"3395981","latitude":"-9.75","longitude":"-36.65","city_name":"Arapiraca","timezone":"America\/Maceio"},{"gmt":"10","iata_code":"APR","country_iso2":"PG","geoname_id":null,"latitude":"-8.5","longitude":"145","city_name":"April River","timezone":"Pacific\/Port_Moresby"},{"gmt":"-3","iata_code":"APS","country_iso2":"BR","geoname_id":"3462377","latitude":"-16.333332","longitude":"-48.966667","city_name":"Anapolis","timezone":"America\/Sao_Paulo"},{"gmt":"-6","iata_code":"APT","country_iso2":"US","geoname_id":null,"latitude":"35.066666","longitude":"-85.5","city_name":"Jasper","timezone":"America\/Chicago"},{"gmt":"-3","iata_code":"APU","country_iso2":"BR","geoname_id":"3457671","latitude":"-23.55","longitude":"-51.483334","city_name":"Apucarana","timezone":"America\/Sao_Paulo"},{"gmt":"-8","iata_code":"APV","country_iso2":"US","geoname_id":"5324363","latitude":"34.52639","longitude":"-117.212776","city_name":"Apple Valley","timezone":"America\/Los_Angeles"},{"gmt":"13","iata_code":"APW","country_iso2":"WS","geoname_id":"4035413","latitude":"-13.833333","longitude":"-171.766667","city_name":"Apia","timezone":"Pacific\/Apia"},{"gmt":"-3","iata_code":"APX","country_iso2":"BR","geoname_id":"3457671","latitude":"-23.483334","longitude":"-51.466667","city_name":"Arapongas","timezone":"America\/Sao_Paulo"},{"gmt":"-3","iata_code":"APY","country_iso2":"BR","geoname_id":null,"latitude":"-9.133333","longitude":"-45.933334","city_name":"Alto Parnaiba","timezone":"America\/Fortaleza"},{"gmt":"-3","iata_code":"APZ","country_iso2":"AR","geoname_id":"8556185","latitude":"-38.916668","longitude":"-70.083336","city_name":"Zapala","timezone":"America\/Argentina\/Salta"},{"gmt":"-3","iata_code":"AQA","country_iso2":"BR","geoname_id":"3471766","latitude":"-21.816668","longitude":"-48.13333","city_name":"Araraquara","timezone":"America\/Sao_Paulo"},{"gmt":"-6","iata_code":"AQB","country_iso2":"GT","geoname_id":"3599699","latitude":"15.01","longitude":"-91.15","city_name":"Quiche","timezone":"America\/Guatemala"},{"gmt":"8","iata_code":"AQG","country_iso2":"CN","geoname_id":"1817993","latitude":"30.5825","longitude":"117.0509","city_name":"Anqing","timezone":"Asia\/Shanghai"},{"gmt":"3","iata_code":"AQI","country_iso2":"SA","geoname_id":null,"latitude":"28.334408","longitude":"46.121315","city_name":"Qaisumah","timezone":"Asia\/Riyadh"},{"gmt":"2","iata_code":"AQJ","country_iso2":"JO","geoname_id":"250774","latitude":"29.610073","longitude":"35.02151","city_name":"Aqaba","timezone":"Asia\/Amman"},{"gmt":"-4","iata_code":"AQM","country_iso2":"BR","geoname_id":null,"latitude":"-9.933333","longitude":"-63.066666","city_name":"Ariquemes","timezone":"America\/Porto_Velho"},{"gmt":"-5","iata_code":"AQP","country_iso2":"PE","geoname_id":"3947322","latitude":"-16.344812","longitude":"-71.56799","city_name":"Arequipa","timezone":"America\/Lima"},{"gmt":"12","iata_code":"AQS","country_iso2":"FJ","geoname_id":null,"latitude":"-17","longitude":"170.9","city_name":"Saqani","timezone":"Pacific\/Fiji"},{"gmt":"-9","iata_code":"AQY","country_iso2":"US","geoname_id":"5879267","latitude":"60.966667","longitude":"-149.11667","city_name":"Alyeska","timezone":"America\/Anchorage"},{"gmt":"-6","iata_code":"ARA","country_iso2":"US","geoname_id":"4334971","latitude":"30.037779","longitude":"-91.88389","city_name":"New Iberia","timezone":"America\/Chicago"},{"gmt":"-5","iata_code":"ARB","country_iso2":"US","geoname_id":"4984247","latitude":"42.3","longitude":"-83.75","city_name":"Ann Arbor","timezone":"America\/Detroit"},{"gmt":"-9","iata_code":"ARC","country_iso2":"US","geoname_id":"5879636","latitude":"68.1375","longitude":"-145.52444","city_name":"Arctic Village","timezone":"America\/Anchorage"},{"gmt":"8","iata_code":"ARD","country_iso2":"ID","geoname_id":null,"latitude":"-8.683333","longitude":"124.53333","city_name":"Alor Island","timezone":"Asia\/Makassar"},{"gmt":"-4","iata_code":"ARE","country_iso2":"PR","geoname_id":"4562635","latitude":"18.45","longitude":"-66.675835","city_name":"Arecibo","timezone":"America\/Puerto_Rico"},{"gmt":"-5","iata_code":"ARF","country_iso2":"CO","geoname_id":null,"latitude":"0.533333","longitude":"-70.13333","city_name":"Acaricuara","timezone":"America\/Bogota"},{"gmt":"-6","iata_code":"ARG","country_iso2":"US","geoname_id":"4102412","latitude":"36.066666","longitude":"-90.95","city_name":"Walnut Ridge","timezone":"America\/Chicago"},{"gmt":"3","iata_code":"ARH","country_iso2":"RU","geoname_id":"581049","latitude":"64.594795","longitude":"40.711903","city_name":"Arkhangelsk","timezone":"Europe\/Moscow"},{"gmt":"-4","iata_code":"ARI","country_iso2":"CL","geoname_id":"3899361","latitude":"-18.349766","longitude":"-70.335556","city_name":"Arica","timezone":"America\/Santiago"},{"gmt":"9","iata_code":"ARJ","country_iso2":"ID","geoname_id":"2082600","latitude":"-2.933333","longitude":"140.78334","city_name":"Arso","timezone":"Asia\/Jayapura"},{"gmt":"3","iata_code":"ARK","country_iso2":"TZ","geoname_id":"161325","latitude":"-3.366667","longitude":"36.683334","city_name":"Arusha","timezone":"Africa\/Dar_es_Salaam"},{"gmt":null,"iata_code":"ARL","country_iso2":"BF","geoname_id":null,"latitude":"11.6","longitude":"1.483333","city_name":"Arly","timezone":"Africa\/Ouagadougou"},{"gmt":"10","iata_code":"ARM","country_iso2":"AU","geoname_id":"2177671","latitude":"-30.532297","longitude":"151.61493","city_name":"Armidale","timezone":"Australia\/Sydney"},{"gmt":"-5","iata_code":"ARO","country_iso2":"CO","geoname_id":null,"latitude":"8.85","longitude":"-76.433334","city_name":"Arboletas","timezone":"America\/Bogota"},{"gmt":"10","iata_code":"ARP","country_iso2":"PG","geoname_id":"2085070","latitude":"-9.8","longitude":"149.5","city_name":"Aragip","timezone":"Pacific\/Port_Moresby"},{"gmt":"-5","iata_code":"ARQ","country_iso2":"CO","geoname_id":null,"latitude":"7.033056","longitude":"-71.43166","city_name":"Arauquita","timezone":"America\/Bogota"},{"gmt":"-3","iata_code":"ARR","country_iso2":"AR","geoname_id":null,"latitude":"-45.033333","longitude":"-70.833336","city_name":"Alto Rio Senguerr","timezone":"America\/Argentina\/Catamarca"},{"gmt":"-3","iata_code":"ARS","country_iso2":"BR","geoname_id":null,"latitude":"-15.9","longitude":"-52.233334","city_name":"Aragarcas","timezone":"America\/Sao_Paulo"},{"gmt":"-5","iata_code":"ART","country_iso2":"US","geoname_id":"5143396","latitude":"43.990833","longitude":"-76.021385","city_name":"Watertown","timezone":"America\/New_York"},{"gmt":"-3","iata_code":"ARU","country_iso2":"BR","geoname_id":"3471859","latitude":"-21.143612","longitude":"-50.42611","city_name":"Aracatuba","timezone":"America\/Sao_Paulo"},{"gmt":"-6","iata_code":"ARV","country_iso2":"US","geoname_id":"5263156","latitude":"45.924168","longitude":"-89.73222","city_name":"Minocqua","timezone":"America\/Chicago"},{"gmt":"2","iata_code":"ARW","country_iso2":"RO","geoname_id":"686254","latitude":"46.183334","longitude":"21.266666","city_name":"Arad","timezone":"Europe\/Bucharest"},{"gmt":"-5","iata_code":"ARX","country_iso2":"US","geoname_id":null,"latitude":"40.216667","longitude":"-74.1","city_name":"Neptune","timezone":"America\/New_York"},{"gmt":"10","iata_code":"ARY","country_iso2":"AU","geoname_id":"2177091","latitude":"-37.316666","longitude":"143","city_name":"Ararat","timezone":"Australia\/Melbourne"},{"gmt":"1","iata_code":"ARZ","country_iso2":"AO","geoname_id":null,"latitude":"-7.5","longitude":"13.5","city_name":"N\u0027zeto","timezone":"Africa\/Luanda"},{"gmt":"3","iata_code":"ASA","country_iso2":"ER","geoname_id":null,"latitude":"13.07","longitude":"42.638332","city_name":"Assab","timezone":"Africa\/Asmara"},{"gmt":"5","iata_code":"ASB","country_iso2":"TM","geoname_id":"162183","latitude":"37.984184","longitude":"58.366978","city_name":"Ashgabat","timezone":"Asia\/Ashgabat"},{"gmt":"-4","iata_code":"ASC","country_iso2":"BO","geoname_id":null,"latitude":"-15.916667","longitude":"-63.15","city_name":"Ascension","timezone":"America\/La_Paz"},{"gmt":"-5","iata_code":"ASD","country_iso2":"BS","geoname_id":"3572906","latitude":"24.697779","longitude":"-77.79611","city_name":"Andros Town","timezone":"America\/Nassau"},{"gmt":"-7","iata_code":"ASE","country_iso2":"US","geoname_id":"5412230","latitude":"39.219685","longitude":"-106.864685","city_name":"Aspen","timezone":"America\/Denver"},{"gmt":"3","iata_code":"ASF","country_iso2":"RU","geoname_id":"580497","latitude":"46.2877","longitude":"47.999977","city_name":"Astrakhan","timezone":"Europe\/Volgograd"},{"gmt":"12","iata_code":"ASG","country_iso2":"NZ","geoname_id":"6217081","latitude":"-43.9","longitude":"171.78334","city_name":"Ashburton","timezone":"Pacific\/Auckland"},{"gmt":"-5","iata_code":"ASH","country_iso2":"US","geoname_id":"5090046","latitude":"42.77889","longitude":"-71.509445","city_name":"Nashua","timezone":"America\/New_York"},{"gmt":null,"iata_code":"ASI","country_iso2":"SH","geoname_id":"2411397","latitude":"-7.966667","longitude":"-14.4","city_name":"Georgetown","timezone":"Atlantic\/St_Helena"},{"gmt":"9","iata_code":"ASJ","country_iso2":"JP","geoname_id":null,"latitude":"28.431522","longitude":"129.70793","city_name":"Amami","timezone":"Asia\/Tokyo"},{"gmt":null,"iata_code":"ASK","country_iso2":"CI","geoname_id":null,"latitude":"6.816667","longitude":"-5.283333","city_name":"Yamoussoukro","timezone":"Africa\/Abidjan"},{"gmt":"-6","iata_code":"ASL","country_iso2":"US","geoname_id":"4709272","latitude":"32.55","longitude":"-94.38333","city_name":"Marshall","timezone":"America\/Chicago"},{"gmt":"3","iata_code":"ASM","country_iso2":"ER","geoname_id":"343300","latitude":"15.291111","longitude":"38.91028","city_name":"Asmara","timezone":"Africa\/Asmara"},{"gmt":"-6","iata_code":"ASN","country_iso2":"US","geoname_id":"4049979","latitude":"33.433334","longitude":"-86.1","city_name":"Talladega","timezone":"America\/Chicago"},{"gmt":"3","iata_code":"ASO","country_iso2":"ET","geoname_id":null,"latitude":"10.047222","longitude":"34.536667","city_name":"Asosa","timezone":"Africa\/Addis_Ababa"},{"gmt":"9.30","iata_code":"ASP","country_iso2":"AU","geoname_id":"2077895","latitude":"-23.70021","longitude":"133.880611","city_name":"Alice Springs","timezone":"Australia\/Darwin"},{"gmt":"-8","iata_code":"ASQ","country_iso2":"US","geoname_id":null,"latitude":"39.466667","longitude":"-117.166664","city_name":"Austin","timezone":"America\/Los_Angeles"},{"gmt":"3","iata_code":"ASR","country_iso2":"TR","geoname_id":"308464","latitude":"38.7742","longitude":"35.490707","city_name":"Kayseri","timezone":"Europe\/Istanbul"},{"gmt":"-8","iata_code":"AST","country_iso2":"US","geoname_id":"5711847","latitude":"46.15972","longitude":"-123.88","city_name":"Astoria","timezone":"America\/Los_Angeles"},{"gmt":"-4","iata_code":"ASU","country_iso2":"PY","geoname_id":"3439389","latitude":"-25.241795","longitude":"-57.513794","city_name":"Asuncion","timezone":"America\/Asuncion"},{"gmt":"3","iata_code":"ASV","country_iso2":"KE","geoname_id":"201050","latitude":"-2.633333","longitude":"37.25","city_name":"Amboseli","timezone":"Africa\/Nairobi"},{"gmt":"2","iata_code":"ASW","country_iso2":"EG","geoname_id":"359792","latitude":"23.968021","longitude":"32.824818","city_name":"Aswan","timezone":"Africa\/Cairo"},{"gmt":"-6","iata_code":"ASX","country_iso2":"US","geoname_id":"5024719","latitude":"46.55","longitude":"-90.916664","city_name":"Ashland","timezone":"America\/Chicago"},{"gmt":"-6","iata_code":"ASY","country_iso2":"US","geoname_id":null,"latitude":"46.033333","longitude":"-99.36667","city_name":"Ashley","timezone":"America\/Chicago"},{"gmt":"10","iata_code":"ASZ","country_iso2":"PG","geoname_id":"2093967","latitude":"-5.866667","longitude":"150.36667","city_name":"Asirim","timezone":"Pacific\/Port_Moresby"},{"gmt":"-5","iata_code":"ATA","country_iso2":"PE","geoname_id":"3699617","latitude":"-9.347222","longitude":"-77.6","city_name":"Anta","timezone":"America\/Lima"},{"gmt":"3","iata_code":"ATB","country_iso2":"SD","geoname_id":null,"latitude":"17.716667","longitude":"34.016666","city_name":"Atbara","timezone":"Africa\/Khartoum"},{"gmt":"-5","iata_code":"ATC","country_iso2":"BS","geoname_id":null,"latitude":"24.62861","longitude":"-75.67139","city_name":"Arthur\u0027s Town","timezone":"America\/Nassau"},{"gmt":"11","iata_code":"ATD","country_iso2":"SB","geoname_id":null,"latitude":"-8.866667","longitude":"161.03334","city_name":"Atoifi","timezone":"Pacific\/Guadalcanal"},{"gmt":"-6","iata_code":"ATE","country_iso2":"US","geoname_id":"4542367","latitude":"34.233334","longitude":"-95.61667","city_name":"Antlers","timezone":"America\/Chicago"},{"gmt":"-5","iata_code":"ATF","country_iso2":"EC","geoname_id":"3660689","latitude":"-1.083333","longitude":"-78.7","city_name":"Ambato","timezone":"America\/Guayaquil"},{"gmt":"5","iata_code":"ATG","country_iso2":"PK","geoname_id":null,"latitude":"33.9","longitude":"72.25","city_name":"Attock","timezone":"Asia\/Karachi"},{"gmt":"2","iata_code":"ATH","country_iso2":"GR","geoname_id":"264371","latitude":"37.93635","longitude":"23.946486","city_name":"Athens","timezone":"Europe\/Athens"},{"gmt":"-3","iata_code":"ATI","country_iso2":"UY","geoname_id":"3443758","latitude":"-30.4","longitude":"-56.50833","city_name":"Artigas","timezone":"America\/Montevideo"},{"gmt":"3","iata_code":"ATJ","country_iso2":"MG","geoname_id":null,"latitude":"-19.85","longitude":"47.016666","city_name":"Antsirabe","timezone":"Indian\/Antananarivo"},{"gmt":"-9","iata_code":"ATK","country_iso2":"US","geoname_id":"5879756","latitude":"70.5","longitude":"-157.33333","city_name":"Atqasuk","timezone":"America\/Anchorage"},{"gmt":"-5","iata_code":"ATL","country_iso2":"US","geoname_id":"4180439","latitude":"33.748995","longitude":"-84.387982","city_name":"Atlanta","timezone":"America\/New_York"},{"gmt":"-3","iata_code":"ATM","country_iso2":"BR","geoname_id":"3407882","latitude":"-3.2","longitude":"-52.216667","city_name":"Altamira","timezone":"America\/Santarem"},{"gmt":"10","iata_code":"ATN","country_iso2":"PG","geoname_id":"2093685","latitude":"-3.666667","longitude":"152.46666","city_name":"Namatanai","timezone":"Pacific\/Port_Moresby"},{"gmt":"-5","iata_code":"ATO","country_iso2":"US","geoname_id":null,"latitude":"39.333332","longitude":"-82.1","city_name":"Athens","timezone":"America\/New_York"},{"gmt":"10","iata_code":"ATP","country_iso2":"PG","geoname_id":null,"latitude":"-3.166667","longitude":"142.28334","city_name":"Aitape","timezone":"Pacific\/Port_Moresby"},{"gmt":"5.30","iata_code":"ATQ","country_iso2":"IN","geoname_id":"1278710","latitude":"31.706741","longitude":"74.8073","city_name":"Amritsar","timezone":"Asia\/Kolkata"},{"gmt":null,"iata_code":"ATR","country_iso2":"MR","geoname_id":null,"latitude":"20.499443","longitude":"-13.046389","city_name":"Atar","timezone":"Africa\/Nouakchott"},{"gmt":"-7","iata_code":"ATS","country_iso2":"US","geoname_id":"5488441","latitude":"32.84833","longitude":"-104.46694","city_name":"Artesia","timezone":"America\/Denver"},{"gmt":"-9","iata_code":"ATT","country_iso2":"US","geoname_id":"5879749","latitude":"60.866943","longitude":"-162.2675","city_name":"Atmautluak","timezone":"America\/Nome"},{"gmt":"-10","iata_code":"ATU","country_iso2":"US","geoname_id":null,"latitude":"52.825832","longitude":"173.17278","city_name":"Attu Island","timezone":"America\/Adak"},{"gmt":"1","iata_code":"ATV","country_iso2":"TD","geoname_id":"2436400","latitude":"13.242222","longitude":"18.3075","city_name":"Ati","timezone":"Africa\/Ndjamena"},{"gmt":"-6","iata_code":"ATW","country_iso2":"US","geoname_id":"5244080","latitude":"44.26011","longitude":"-88.50994","city_name":"Appleton","timezone":"America\/Chicago"},{"gmt":"6","iata_code":"ATX","country_iso2":"KZ","geoname_id":null,"latitude":"51.88333","longitude":"68.4","city_name":"Atbasar","timezone":"Asia\/Almaty"},{"gmt":"-6","iata_code":"ATY","country_iso2":"US","geoname_id":"5232741","latitude":"44.90889","longitude":"-97.15417","city_name":"Watertown","timezone":"America\/Chicago"},{"gmt":"2","iata_code":"ATZ","country_iso2":"EG","geoname_id":null,"latitude":"27.033333","longitude":"31","city_name":"Assiut","timezone":"Africa\/Cairo"},{"gmt":"-4","iata_code":"AUA","country_iso2":"AW","geoname_id":"3577152","latitude":"12.502222","longitude":"-70.013885","city_name":"Aruba","timezone":"America\/Aruba"},{"gmt":"-4","iata_code":"AUB","country_iso2":"BR","geoname_id":null,"latitude":"-5.766667","longitude":"-63.35","city_name":"Itauba","timezone":"America\/Cuiaba"},{"gmt":"-5","iata_code":"AUC","country_iso2":"CO","geoname_id":"3689718","latitude":"7.071667","longitude":"-70.7425","city_name":"Arauca","timezone":"America\/Bogota"},{"gmt":"10","iata_code":"AUD","country_iso2":"AU","geoname_id":null,"latitude":"-18.506945","longitude":"139.88167","city_name":"Augustus Downs","timezone":"Australia\/Brisbane"},{"gmt":"2","iata_code":"AUE","country_iso2":"EG","geoname_id":null,"latitude":"28.9","longitude":"33.183334","city_name":"Abu Rudeis","timezone":"Africa\/Cairo"},{"gmt":"1","iata_code":"AUF","country_iso2":"FR","geoname_id":"3035843","latitude":"47.85","longitude":"3.5","city_name":"Auxerre","timezone":"Europe\/Paris"},{"gmt":"-5","iata_code":"AUG","country_iso2":"US","geoname_id":"4957003","latitude":"44.318054","longitude":"-69.79667","city_name":"Augusta","timezone":"America\/New_York"},{"gmt":"4","iata_code":"AUH","country_iso2":"AE","geoname_id":"292968","latitude":"24.466667","longitude":"54.366667","city_name":"Abu Dhabi","timezone":"Asia\/Dubai"},{"gmt":"10","iata_code":"AUI","country_iso2":"PG","geoname_id":null,"latitude":"-1.458333","longitude":"143.075","city_name":"Aua Island","timezone":"Pacific\/Port_Moresby"},{"gmt":"10","iata_code":"AUJ","country_iso2":"PG","geoname_id":"2100933","latitude":"-4.25","longitude":"142.85","city_name":"Ambunti","timezone":"Pacific\/Port_Moresby"},{"gmt":"-9","iata_code":"AUK","country_iso2":"US","geoname_id":"5879057","latitude":"62.689167","longitude":"-164.61084","city_name":"Alakanuk","timezone":"America\/Nome"},{"gmt":"12","iata_code":"AUL","country_iso2":"MH","geoname_id":null,"latitude":"8.133333","longitude":"171.16667","city_name":"Aur Island","timezone":"Pacific\/Majuro"},{"gmt":"-6","iata_code":"AUM","country_iso2":"US","geoname_id":"5016884","latitude":"43.666668","longitude":"-92.98333","city_name":"Austin","timezone":"America\/Chicago"},{"gmt":"-8","iata_code":"AUN","country_iso2":"US","geoname_id":"5389489","latitude":"38.9","longitude":"-121.066666","city_name":"Auburn","timezone":"America\/Los_Angeles"},{"gmt":"-6","iata_code":"AUO","country_iso2":"US","geoname_id":"4081644","latitude":"32.63333","longitude":"-85.5","city_name":"Auburn","timezone":"America\/Chicago"},{"gmt":"10","iata_code":"AUP","country_iso2":"PG","geoname_id":"2085070","latitude":"-9.983333","longitude":"149.58333","city_name":"Agaun","timezone":"Pacific\/Port_Moresby"},{"gmt":"-9:30","iata_code":"AUQ","country_iso2":"PF","geoname_id":"4020109","latitude":"-9.769324","longitude":"-139.00978","city_name":"Atuona","timezone":"Pacific\/Marquesas"},{"gmt":"1","iata_code":"AUR","country_iso2":"FR","geoname_id":"3036016","latitude":"44.8975","longitude":"2.418056","city_name":"Aurillac","timezone":"Europe\/Paris"},{"gmt":"-6","iata_code":"AUS","country_iso2":"US","geoname_id":"4671654","latitude":"30.267153","longitude":"-97.743061","city_name":"Austin","timezone":"America\/Chicago"},{"gmt":"9","iata_code":"AUT","country_iso2":"ID","geoname_id":"1645457","latitude":"-8.216667","longitude":"125.583336","city_name":"Atauro","timezone":"Asia\/Dili"},{"gmt":"10","iata_code":"AUU","country_iso2":"AU","geoname_id":"2144209","latitude":"-13.166667","longitude":"142.25","city_name":"Aurukun Mission","timezone":"Australia\/Brisbane"},{"gmt":"10","iata_code":"AUV","country_iso2":"PG","geoname_id":null,"latitude":"-5.716667","longitude":"148.43333","city_name":"Aumo","timezone":"Pacific\/Port_Moresby"},{"gmt":"-6","iata_code":"AUW","country_iso2":"US","geoname_id":"5278131","latitude":"44.923332","longitude":"-89.623055","city_name":"Wausau","timezone":"America\/Chicago"},{"gmt":"-3","iata_code":"AUX","country_iso2":"BR","geoname_id":"3407357","latitude":"-7.2","longitude":"-48.2","city_name":"Araguaina","timezone":"America\/Araguaina"},{"gmt":"11","iata_code":"AUY","country_iso2":"VU","geoname_id":"2136499","latitude":"-20.333332","longitude":"169.66667","city_name":"Aneityum","timezone":"Pacific\/Efate"},{"gmt":"-6","iata_code":"AUZ","country_iso2":"US","geoname_id":"4887398","latitude":"41.75","longitude":"-88.316666","city_name":"Aurora","timezone":"America\/Chicago"},{"gmt":"8","iata_code":"AVA","country_iso2":"CN","geoname_id":"1809461","latitude":"26.257221","longitude":"105.87278","city_name":"An Shun","timezone":"Asia\/Chongqing"},{"gmt":"1","iata_code":"AVB","country_iso2":"IT","geoname_id":"3164603","latitude":"46.033333","longitude":"12.6","city_name":"Aviano","timezone":"Europe\/Rome"},{"gmt":"9.30","iata_code":"AVG","country_iso2":"AU","geoname_id":null,"latitude":"-15.65","longitude":"130.01666","city_name":"Auvergne","timezone":"Australia\/Darwin"},{"gmt":"-5","iata_code":"AVI","country_iso2":"CU","geoname_id":null,"latitude":"22.025","longitude":"-78.79139","city_name":"Ciego De Avila","timezone":"America\/Havana"},{"gmt":"8","iata_code":"AVK","country_iso2":"MN","geoname_id":null,"latitude":"46.266666","longitude":"102.78333","city_name":"Arvaikheer","timezone":"Asia\/Ulaanbaatar"},{"gmt":"-5","iata_code":"AVL","country_iso2":"US","geoname_id":"4453066","latitude":"35.43508","longitude":"-82.537315","city_name":"Fletcher","timezone":"America\/New_York"},{"gmt":"1","iata_code":"AVN","country_iso2":"FR","geoname_id":"3035681","latitude":"43.949317","longitude":"4.805528","city_name":"Avignon","timezone":"Europe\/Paris"},{"gmt":"-5","iata_code":"AVO","country_iso2":"US","geoname_id":"4160983","latitude":"27.6","longitude":"-81.51667","city_name":"Avon Park","timezone":"America\/New_York"},{"gmt":"-5","iata_code":"AVP","country_iso2":"US","geoname_id":"5219488","latitude":"41.245915","longitude":"-75.881308","city_name":"Wilkes-Barre","timezone":"America\/New_York"},{"gmt":"11","iata_code":"AVU","country_iso2":"SB","geoname_id":"2109675","latitude":"-9.833333","longitude":"160.38333","city_name":"Avu Avu","timezone":"Pacific\/Guadalcanal"},{"gmt":"-8","iata_code":"AVX","country_iso2":"US","geoname_id":"5368361","latitude":"33.340833","longitude":"-118.327778","city_name":"Avalon","timezone":"America\/Los_Angeles"},{"gmt":"3","iata_code":"AWA","country_iso2":"ET","geoname_id":null,"latitude":"7.061111","longitude":"38.4875","city_name":"Awassa","timezone":"Africa\/Addis_Ababa"},{"gmt":"10","iata_code":"AWB","country_iso2":"PG","geoname_id":null,"latitude":"-8.016667","longitude":"142.75","city_name":"Awaba","timezone":"Pacific\/Port_Moresby"},{"gmt":"11","iata_code":"AWD","country_iso2":"VU","geoname_id":"2136256","latitude":"-19.25","longitude":"169.5","city_name":"Aniwa","timezone":"Pacific\/Efate"},{"gmt":"1","iata_code":"AWE","country_iso2":"GA","geoname_id":null,"latitude":"-0.75","longitude":"9.45","city_name":"Alowe","timezone":"Africa\/Libreville"},{"gmt":"12","iata_code":"AWK","country_iso2":"UM","geoname_id":null,"latitude":"19.283333","longitude":"166.63333","city_name":"Wake Island","timezone":"Pacific\/Wake"},{"gmt":"-6","iata_code":"AWM","country_iso2":"US","geoname_id":"4641239","latitude":"35.13333","longitude":"-90.183334","city_name":"West Memphis","timezone":"America\/Chicago"},{"gmt":"9.30","iata_code":"AWN","country_iso2":"AU","geoname_id":null,"latitude":"-26.25","longitude":"138.66667","city_name":"Alton Downs","timezone":"Australia\/Adelaide"},{"gmt":"9.30","iata_code":"AWP","country_iso2":"AU","geoname_id":null,"latitude":"-20.5","longitude":"137.75","city_name":"Austral Downs","timezone":"Australia\/Darwin"},{"gmt":"10","iata_code":"AWR","country_iso2":"PG","geoname_id":null,"latitude":"-4.124167","longitude":"144.87029","city_name":"Awar","timezone":"Pacific\/Port_Moresby"},{"gmt":"3.30","iata_code":"AWZ","country_iso2":"IR","geoname_id":null,"latitude":"31.34292","longitude":"48.74668","city_name":"Ahwaz","timezone":"Asia\/Tehran"},{"gmt":"-4","iata_code":"AXA","country_iso2":"AI","geoname_id":"3573374","latitude":"18.216667","longitude":"-63.066666","city_name":"Anguilla","timezone":"America\/Anguilla"},{"gmt":"-5","iata_code":"AXB","country_iso2":"US","geoname_id":"5106950","latitude":"44.2525","longitude":"-75.90139","city_name":"Alexandria Bay","timezone":"America\/New_York"},{"gmt":"10","iata_code":"AXC","country_iso2":"AU","geoname_id":null,"latitude":"-22.958055","longitude":"145.2425","city_name":"Aramac","timezone":"Australia\/Brisbane"},{"gmt":"2","iata_code":"AXD","country_iso2":"GR","geoname_id":"736928","latitude":"40.856785","longitude":"25.944893","city_name":"Alexandroupolis","timezone":"Europe\/Athens"},{"gmt":"-3","iata_code":"AXE","country_iso2":"BR","geoname_id":"3466296","latitude":"-26.883333","longitude":"-52.38333","city_name":"Xanxere","timezone":"America\/Sao_Paulo"},{"gmt":"-6","iata_code":"AXG","country_iso2":"US","geoname_id":"4866445","latitude":"43.066666","longitude":"-94.23333","city_name":"Algona","timezone":"America\/Chicago"},{"gmt":"3","iata_code":"AXK","country_iso2":"YE","geoname_id":null,"latitude":"13.866667","longitude":"46.3","city_name":"Ataq","timezone":"Asia\/Aden"},{"gmt":"9.30","iata_code":"AXL","country_iso2":"AU","geoname_id":null,"latitude":"-19.083332","longitude":"136.66667","city_name":"Alexandria","timezone":"Australia\/Darwin"},{"gmt":"-5","iata_code":"AXM","country_iso2":"CO","geoname_id":"3689560","latitude":"4.452869","longitude":"-75.76804","city_name":"Armenia","timezone":"America\/Bogota"},{"gmt":"-6","iata_code":"AXN","country_iso2":"US","geoname_id":"5016108","latitude":"45.86722","longitude":"-95.394165","city_name":"Alexandria","timezone":"America\/Chicago"},{"gmt":"-5","iata_code":"AXP","country_iso2":"BS","geoname_id":"3571370","latitude":"22.45","longitude":"-73.96667","city_name":"Spring Point","timezone":"America\/Nassau"},{"gmt":"-10","iata_code":"AXR","country_iso2":"PF","geoname_id":null,"latitude":"-15.25","longitude":"-146.75","city_name":"Arutua","timezone":"Pacific\/Tahiti"},{"gmt":"9","iata_code":"AXT","country_iso2":"JP","geoname_id":"2113719","latitude":"39.61177","longitude":"140.22015","city_name":"Akita","timezone":"Asia\/Tokyo"},{"gmt":"3","iata_code":"AXU","country_iso2":"ET","geoname_id":null,"latitude":"14.120833","longitude":"38.716667","city_name":"Axum","timezone":"Africa\/Addis_Ababa"},{"gmt":"-5","iata_code":"AXV","country_iso2":"US","geoname_id":"5175670","latitude":"40.566666","longitude":"-84.2","city_name":"Wapakoneta","timezone":"America\/New_York"},{"gmt":"-7","iata_code":"AXX","country_iso2":"US","geoname_id":"5455214","latitude":"36.416668","longitude":"-105.28333","city_name":"Angel Fire","timezone":"America\/Denver"},{"gmt":"-5","iata_code":"AYA","country_iso2":"CO","geoname_id":"3689381","latitude":"8.316667","longitude":"-75.15","city_name":"Ayapel","timezone":"America\/Bogota"},{"gmt":"-5","iata_code":"AYC","country_iso2":"CO","geoname_id":"3690465","latitude":"8.6","longitude":"-73.61667","city_name":"Ayacucho","timezone":"America\/Bogota"},{"gmt":"9.30","iata_code":"AYD","country_iso2":"AU","geoname_id":null,"latitude":"-19.3","longitude":"135.95","city_name":"Alroy Downs","timezone":"Australia\/Darwin"},{"gmt":"-5","iata_code":"AYE","country_iso2":"US","geoname_id":"7257567","latitude":"42.55","longitude":"-71.6","city_name":"Fort Devens","timezone":"America\/New_York"},{"gmt":"-5","iata_code":"AYG","country_iso2":"CO","geoname_id":null,"latitude":"1.533333","longitude":"-73.933334","city_name":"Yaguara","timezone":"America\/Bogota"},{"gmt":"-5","iata_code":"AYI","country_iso2":"CO","geoname_id":"3665757","latitude":"-0.333333","longitude":"-72.333336","city_name":"Yari","timezone":"America\/Bogota"},{"gmt":"6","iata_code":"AYK","country_iso2":"KZ","geoname_id":null,"latitude":"50.316666","longitude":"66.96667","city_name":"Arkalyk","timezone":"Asia\/Almaty"},{"gmt":"9.30","iata_code":"AYL","country_iso2":"AU","geoname_id":null,"latitude":"-18.033333","longitude":"135.53334","city_name":"Anthony Lagoon","timezone":"Australia\/Darwin"},{"gmt":"8","iata_code":"AYN","country_iso2":"CN","geoname_id":"1785294","latitude":"36.1","longitude":"114.35","city_name":"Anyang","timezone":"Asia\/Shanghai"},{"gmt":"-4","iata_code":"AYO","country_iso2":"PY","geoname_id":"3439378","latitude":"-27.366667","longitude":"-56.85","city_name":"Ayolas","timezone":"America\/Asuncion"},{"gmt":"-5","iata_code":"AYP","country_iso2":"PE","geoname_id":"3947019","latitude":"-13.197222","longitude":"-74.24722","city_name":"Ayacucho","timezone":"America\/Lima"},{"gmt":"9.30","iata_code":"AYQ","country_iso2":"AU","geoname_id":null,"latitude":"-25.190878","longitude":"130.97658","city_name":"Ayers Rock","timezone":"Australia\/Darwin"},{"gmt":"10","iata_code":"AYR","country_iso2":"AU","geoname_id":"2146142","latitude":"-19.596666","longitude":"147.32445","city_name":"Ayr","timezone":"Australia\/Brisbane"},{"gmt":"-5","iata_code":"AYS","country_iso2":"US","geoname_id":"4229763","latitude":"31.248611","longitude":"-82.39667","city_name":"Waycross","timezone":"America\/New_York"},{"gmt":"3","iata_code":"AYT","country_iso2":"TR","geoname_id":"323777","latitude":"36.89928","longitude":"30.80135","city_name":"Antalya","timezone":"Europe\/Istanbul"},{"gmt":"10","iata_code":"AYU","country_iso2":"PG","geoname_id":null,"latitude":"-6.333333","longitude":"145.9","city_name":"Aiyura","timezone":"Pacific\/Port_Moresby"},{"gmt":"9","iata_code":"AYW","country_iso2":"ID","geoname_id":null,"latitude":"-1.2","longitude":"132.5","city_name":"Ayawasi","timezone":"Asia\/Jayapura"},{"gmt":"5.30","iata_code":"AYY","country_iso2":"LK","geoname_id":"1226371","latitude":"6.855","longitude":"81.8311","city_name":"Pothuvil","timezone":"Asia\/Colombo"},{"gmt":"-5","iata_code":"AYZ","country_iso2":"US","geoname_id":null,"latitude":"40.666668","longitude":"-73.416664","city_name":"Amityville","timezone":"America\/New_York"},{"gmt":"10","iata_code":"AZB","country_iso2":"PG","geoname_id":null,"latitude":"-10.15","longitude":"148.81667","city_name":"Amazon Bay","timezone":"Pacific\/Port_Moresby"},{"gmt":"3.30","iata_code":"AZD","country_iso2":"IR","geoname_id":"111822","latitude":"31.903603","longitude":"54.283264","city_name":"Yazd","timezone":"Asia\/Tehran"},{"gmt":"-6","iata_code":"AZG","country_iso2":"MX","geoname_id":null,"latitude":"19.068056","longitude":"-102.352776","city_name":"Apatzingan","timezone":"America\/Mexico_City"},{"gmt":"-4","iata_code":"AZL","country_iso2":"BR","geoname_id":null,"latitude":"-13.47","longitude":"-58.85","city_name":"Sapezal","timezone":"America\/Cuiaba"},{"gmt":"5","iata_code":"AZN","country_iso2":"UZ","geoname_id":null,"latitude":"40.733334","longitude":"72.3","city_name":"Andizhan","timezone":"Asia\/Tashkent"},{"gmt":"-5","iata_code":"AZO","country_iso2":"US","geoname_id":"4997787","latitude":"42.239964","longitude":"-85.55656","city_name":"Kalamazoo","timezone":"America\/Detroit"},{"gmt":"1","iata_code":"AZR","country_iso2":"DZ","geoname_id":null,"latitude":"27.883333","longitude":"-0.283333","city_name":"Adrar","timezone":"Africa\/Algiers"},{"gmt":"-4","iata_code":"AZS","country_iso2":"DO","geoname_id":"3500243","latitude":"19.270555","longitude":"-69.736946","city_name":"El Catey","timezone":"America\/Santo_Domingo"},{"gmt":"-5","iata_code":"AZT","country_iso2":"CO","geoname_id":"3665587","latitude":"6.866667","longitude":"-73.25","city_name":"Zapatoca","timezone":"America\/Bogota"},{"gmt":"1","iata_code":"AZZ","country_iso2":"AO","geoname_id":null,"latitude":"-7.883333","longitude":"13.15","city_name":"Ambriz","timezone":"Africa\/Luanda"},{"gmt":"10","iata_code":"BAA","country_iso2":"PG","geoname_id":null,"latitude":"-5.316667","longitude":"151.03334","city_name":"Bialla","timezone":"Pacific\/Port_Moresby"},{"gmt":"-5","iata_code":"BAC","country_iso2":"CO","geoname_id":"3665900","latitude":"4.583333","longitude":"-72.96667","city_name":"Barranca De Upia","timezone":"America\/Bogota"},{"gmt":"1","iata_code":"BAE","country_iso2":"FR","geoname_id":"2990440","latitude":"44.38333","longitude":"6.666667","city_name":"Barcelonnette","timezone":"Europe\/Paris"},{"gmt":"-5","iata_code":"BAF","country_iso2":"US","geoname_id":"4939783","latitude":"42.13333","longitude":"-72.75","city_name":"Westfield","timezone":"America\/New_York"},{"gmt":"8","iata_code":"BAG","country_iso2":"PH","geoname_id":"1728930","latitude":"16.376667","longitude":"120.617775","city_name":"Baguio","timezone":"Asia\/Manila"},{"gmt":"3","iata_code":"BAH","country_iso2":"BH","geoname_id":"290340","latitude":"26.26918","longitude":"50.62605","city_name":"Manama","timezone":"Asia\/Bahrain"},{"gmt":"-6","iata_code":"BAI","country_iso2":"CR","geoname_id":"3625016","latitude":"9.166667","longitude":"-83.333336","city_name":"Buenos Aires","timezone":"America\/Costa_Rica"},{"gmt":"10","iata_code":"BAJ","country_iso2":"PG","geoname_id":null,"latitude":"-4.833333","longitude":"149.13333","city_name":"Bali","timezone":"Pacific\/Port_Moresby"},{"gmt":"4","iata_code":"BAK","country_iso2":"AZ","geoname_id":"587084","latitude":"40.43495","longitude":"49.867623","city_name":"Baku","timezone":"Asia\/Baku"},{"gmt":"3","iata_code":"BAL","country_iso2":"TR","geoname_id":"321836","latitude":"37.916668","longitude":"41.083332","city_name":"Batman","timezone":"Europe\/Istanbul"},{"gmt":"-8","iata_code":"BAM","country_iso2":"US","geoname_id":"5703670","latitude":"40.63333","longitude":"-116.933334","city_name":"Battle Mountain","timezone":"America\/Los_Angeles"},{"gmt":"2","iata_code":"BAN","country_iso2":"CD","geoname_id":null,"latitude":"-4.313333","longitude":"20.428057","city_name":"Basongo","timezone":"Africa\/Lubumbashi"},{"gmt":"7","iata_code":"BAO","country_iso2":"TH","geoname_id":null,"latitude":"17.385","longitude":"102.79278","city_name":"Ban Mak Khaen","timezone":"Asia\/Bangkok"},{"gmt":"10","iata_code":"BAP","country_iso2":"PG","geoname_id":null,"latitude":"-10.333333","longitude":"149.75","city_name":"Baibara","timezone":"Pacific\/Port_Moresby"},{"gmt":"-5","iata_code":"BAQ","country_iso2":"CO","geoname_id":"3689147","latitude":"10.886398","longitude":"-74.77618","city_name":"Barranquilla","timezone":"America\/Bogota"},{"gmt":"-9","iata_code":"BAR","country_iso2":"US","geoname_id":null,"latitude":"55.333332","longitude":"-133.6","city_name":"Baker Island","timezone":"America\/Sitka"},{"gmt":"11","iata_code":"BAS","country_iso2":"SB","geoname_id":null,"latitude":"-6.983333","longitude":"155.88333","city_name":"Balalae","timezone":"Pacific\/Guadalcanal"},{"gmt":"-3","iata_code":"BAT","country_iso2":"BR","geoname_id":"3470451","latitude":"-20.55","longitude":"-48.55","city_name":"Barretos","timezone":"America\/Sao_Paulo"},{"gmt":"8","iata_code":"BAV","country_iso2":"CN","geoname_id":"2038432","latitude":"40.563328","longitude":"110.0009","city_name":"Baotou","timezone":"Asia\/Shanghai"},{"gmt":"1","iata_code":"BAW","country_iso2":"GA","geoname_id":null,"latitude":"-0.666667","longitude":"146.35","city_name":"Biawonque","timezone":"Africa\/Libreville"},{"gmt":"6","iata_code":"BAX","country_iso2":"RU","geoname_id":"1510853","latitude":"53.361088","longitude":"83.547646","city_name":"Barnaul","timezone":"Asia\/Omsk"},{"gmt":"2","iata_code":"BAY","country_iso2":"RO","geoname_id":"685826","latitude":"47.65","longitude":"23.466667","city_name":"Baia Mare","timezone":"Europe\/Bucharest"},{"gmt":"-4","iata_code":"BAZ","country_iso2":"BR","geoname_id":null,"latitude":"-0.966944","longitude":"-62.933613","city_name":"Barbelos","timezone":"America\/Manaus"},{"gmt":"-4","iata_code":"BBA","country_iso2":"CL","geoname_id":"3898880","latitude":"-45.916668","longitude":"-71.695","city_name":"Balmaceda","timezone":"America\/Santiago"},{"gmt":"-6","iata_code":"BBB","country_iso2":"US","geoname_id":"5016108","latitude":"45.316666","longitude":"-95.6","city_name":"Benson","timezone":"America\/Chicago"},{"gmt":"-6","iata_code":"BBC","country_iso2":"US","geoname_id":"4829307","latitude":"28.983334","longitude":"-95.96667","city_name":"Bay City","timezone":"America\/Chicago"},{"gmt":"-6","iata_code":"BBD","country_iso2":"US","geoname_id":"4676798","latitude":"31.133333","longitude":"-99.333336","city_name":"Brady","timezone":"America\/Chicago"},{"gmt":"-5","iata_code":"BBF","country_iso2":"US","geoname_id":null,"latitude":"42.5","longitude":"-71.183334","city_name":"Burlington","timezone":"America\/New_York"},{"gmt":"12","iata_code":"BBG","country_iso2":"KI","geoname_id":null,"latitude":"3.166667","longitude":"172.75","city_name":"Butaritari","timezone":"Pacific\/Tarawa"},{"gmt":"1","iata_code":"BBH","country_iso2":"DE","geoname_id":"2826287","latitude":"54.363077","longitude":"12.72492","city_name":"Barth","timezone":"Europe\/Berlin"},{"gmt":"5.30","iata_code":"BBI","country_iso2":"IN","geoname_id":"1275817","latitude":"20.252853","longitude":"85.81738","city_name":"Bhubaneswar","timezone":"Asia\/Kolkata"},{"gmt":"1","iata_code":"BBJ","country_iso2":"DE","geoname_id":"2948184","latitude":"49.966667","longitude":"6.516667","city_name":"Bitburg","timezone":"Europe\/Berlin"},{"gmt":"2","iata_code":"BBK","country_iso2":"BW","geoname_id":"933677","latitude":"-17.816668","longitude":"25.15","city_name":"Kasane","timezone":"Africa\/Gaborone"},{"gmt":"7","iata_code":"BBM","country_iso2":"KH","geoname_id":"1822214","latitude":"13.116667","longitude":"103.2","city_name":"Battambang","timezone":"Asia\/Phnom_Penh"},{"gmt":"8","iata_code":"BBN","country_iso2":"MY","geoname_id":null,"latitude":"3.683333","longitude":"115.46667","city_name":"Bario","timezone":"Asia\/Kuching"},{"gmt":"3","iata_code":"BBO","country_iso2":"SO","geoname_id":"64435","latitude":"10.419444","longitude":"45.00639","city_name":"Berbera","timezone":"Africa\/Mogadishu"},{"gmt":null,"iata_code":"BBP","country_iso2":"GB","geoname_id":"2638138","latitude":"50.683334","longitude":"-1.083333","city_name":"Bembridge","timezone":"Europe\/London"},{"gmt":"-4","iata_code":"BBQ","country_iso2":"AG","geoname_id":null,"latitude":"17.555555","longitude":"-61.765","city_name":"Barbuda","timezone":"America\/Antigua"},{"gmt":"-4","iata_code":"BBR","country_iso2":"GP","geoname_id":null,"latitude":"16.01639","longitude":"-61.739445","city_name":"Basse Terre","timezone":"America\/Guadeloupe"},{"gmt":null,"iata_code":"BBS","country_iso2":"GB","geoname_id":"2643743","latitude":"51.333332","longitude":"-0.85","city_name":"Yateley","timezone":"Europe\/London"},{"gmt":"1","iata_code":"BBT","country_iso2":"CF","geoname_id":null,"latitude":"4.219167","longitude":"15.788056","city_name":"Berberati","timezone":"Africa\/Bangui"},{"gmt":null,"iata_code":"BBV","country_iso2":"CI","geoname_id":null,"latitude":"4.666667","longitude":"-6.95","city_name":"Bereby","timezone":"Africa\/Abidjan"},{"gmt":"-6","iata_code":"BBW","country_iso2":"US","geoname_id":"5071348","latitude":"41.4","longitude":"-99.63333","city_name":"Broken Bow","timezone":"America\/Chicago"},{"gmt":"-5","iata_code":"BBX","country_iso2":"US","geoname_id":"4560349","latitude":"40.136665","longitude":"-75.2675","city_name":"Blue Bell","timezone":"America\/New_York"},{"gmt":"1","iata_code":"BBY","country_iso2":"CF","geoname_id":null,"latitude":"5.845833","longitude":"20.649721","city_name":"Bambari","timezone":"Africa\/Bangui"},{"gmt":"2","iata_code":"BBZ","country_iso2":"ZM","geoname_id":null,"latitude":"-13.537222","longitude":"23.11","city_name":"Zambezi","timezone":"Africa\/Lusaka"},{"gmt":"-5","iata_code":"BCA","country_iso2":"CU","geoname_id":"3567834","latitude":"20.35","longitude":"-74.5","city_name":"Baracoa","timezone":"America\/Havana"},{"gmt":"-5","iata_code":"BCB","country_iso2":"US","geoname_id":"4752665","latitude":"37.233334","longitude":"-80.416664","city_name":"Blacksburg","timezone":"America\/New_York"},{"gmt":"-9","iata_code":"BCC","country_iso2":"US","geoname_id":null,"latitude":"45.183334","longitude":"-109.1","city_name":"Bear Creek","timezone":"America\/Anchorage"},{"gmt":"8","iata_code":"BCD","country_iso2":"PH","geoname_id":"1729564","latitude":"10.644815","longitude":"122.93359","city_name":"Bacolod","timezone":"Asia\/Manila"},{"gmt":"-7","iata_code":"BCE","country_iso2":"US","geoname_id":"5544525","latitude":"37.70111","longitude":"-112.13528","city_name":"Bryce","timezone":"America\/Denver"},{"gmt":"1","iata_code":"BCF","country_iso2":"CF","geoname_id":null,"latitude":"6.75","longitude":"18.416668","city_name":"Bouca","timezone":"Africa\/Bangui"},{"gmt":"-4","iata_code":"BCG","country_iso2":"GY","geoname_id":null,"latitude":"6.55","longitude":"-58.55","city_name":"Bemichi","timezone":"America\/Guyana"},{"gmt":"9","iata_code":"BCH","country_iso2":"TL","geoname_id":"1645457","latitude":"-8.491667","longitude":"126.39972","city_name":"Baucau","timezone":"Asia\/Dili"},{"gmt":"10","iata_code":"BCI","country_iso2":"AU","geoname_id":"2176895","latitude":"-23.559168","longitude":"145.30194","city_name":"Barcaldine","timezone":"Australia\/Brisbane"},{"gmt":"-7","iata_code":"BCJ","country_iso2":"US","geoname_id":"5411479","latitude":"39","longitude":"-106","city_name":"Baca Grande","timezone":"America\/Denver"},{"gmt":"10","iata_code":"BCK","country_iso2":"AU","geoname_id":null,"latitude":"-17.4","longitude":"144.16667","city_name":"Bolwarra","timezone":"Australia\/Brisbane"},{"gmt":"-6","iata_code":"BCL","country_iso2":"CR","geoname_id":"3621241","latitude":"10.833333","longitude":"-82.96667","city_name":"Barra Colorado","timezone":"America\/Costa_Rica"},{"gmt":"2","iata_code":"BCM","country_iso2":"RO","geoname_id":"685948","latitude":"46.59861","longitude":"26.881945","city_name":"Bacau","timezone":"Europe\/Bucharest"},{"gmt":"1","iata_code":"BCN","country_iso2":"ES","geoname_id":"3128760","latitude":"41.387917","longitude":"2.169919","city_name":"Barcelona","timezone":"Europe\/Madrid"},{"gmt":"3","iata_code":"BCO","country_iso2":"ET","geoname_id":null,"latitude":"5.783333","longitude":"36.55","city_name":"Jinka","timezone":"Africa\/Addis_Ababa"},{"gmt":"10","iata_code":"BCP","country_iso2":"PG","geoname_id":"2099957","latitude":"-5.85","longitude":"146.48334","city_name":"Bambu","timezone":"Pacific\/Port_Moresby"},{"gmt":"2","iata_code":"BCQ","country_iso2":"LY","geoname_id":null,"latitude":"27.683332","longitude":"14.216667","city_name":"Brack","timezone":"Africa\/Tripoli"},{"gmt":"-4","iata_code":"BCR","country_iso2":"BR","geoname_id":null,"latitude":"-8.75","longitude":"-67.38333","city_name":"Boca Do Acre","timezone":"America\/Manaus"},{"gmt":"-6","iata_code":"BCS","country_iso2":"US","geoname_id":"4316329","latitude":"29.966667","longitude":"-90","city_name":"Belle Chasse","timezone":"America\/Chicago"},{"gmt":"-5","iata_code":"BCT","country_iso2":"US","geoname_id":"4155966","latitude":"26.35","longitude":"-80.083336","city_name":"Boca Raton","timezone":"America\/New_York"},{"gmt":"1","iata_code":"BCU","country_iso2":"NG","geoname_id":null,"latitude":"10.366667","longitude":"9.8","city_name":"Bauchi","timezone":"Africa\/Lagos"},{"gmt":"-6","iata_code":"BCV","country_iso2":"BZ","geoname_id":"3582672","latitude":"17.266666","longitude":"-88.78333","city_name":"Belmopan","timezone":"America\/Belize"},{"gmt":"2","iata_code":"BCW","country_iso2":"MZ","geoname_id":null,"latitude":"-21.884722","longitude":"35.425","city_name":"Benguera Island","timezone":"Africa\/Maputo"},{"gmt":"5","iata_code":"BCX","country_iso2":"RU","geoname_id":"584329","latitude":"53.933334","longitude":"58.333332","city_name":"Beloreck","timezone":"Asia\/Yekaterinburg"},{"gmt":"3","iata_code":"BCY","country_iso2":"ET","geoname_id":null,"latitude":"6.216667","longitude":"36.666668","city_name":"Bulchi","timezone":"Africa\/Addis_Ababa"},{"gmt":"9.30","iata_code":"BCZ","country_iso2":"AU","geoname_id":null,"latitude":"-13.783333","longitude":"137.8","city_name":"Bickerton Island","timezone":"Australia\/Darwin"},{"gmt":"-4","iata_code":"BDA","country_iso2":"BM","geoname_id":"3573197","latitude":"32.358281","longitude":"-64.680683","city_name":"St. George","timezone":"Atlantic\/Bermuda"},{"gmt":"10","iata_code":"BDB","country_iso2":"AU","geoname_id":"2173323","latitude":"-24.898708","longitude":"152.32187","city_name":"Bundaberg","timezone":"Australia\/Brisbane"},{"gmt":"-3","iata_code":"BDC","country_iso2":"BR","geoname_id":null,"latitude":"-5.466667","longitude":"-45.266666","city_name":"Barra Do Corda","timezone":"America\/Fortaleza"},{"gmt":"10","iata_code":"BDD","country_iso2":"AU","geoname_id":null,"latitude":"-10.148655","longitude":"142.17166","city_name":"Badu Island","timezone":"Australia\/Brisbane"},{"gmt":"-6","iata_code":"BDE","country_iso2":"US","geoname_id":null,"latitude":"48.72278","longitude":"-94.60694","city_name":"Baudette","timezone":"America\/Chicago"},{"gmt":"-6","iata_code":"BDF","country_iso2":"US","geoname_id":null,"latitude":"41.183334","longitude":"-89.65","city_name":"Bradford","timezone":"America\/Chicago"},